closest bike station id,poi_id,name,address,distance,longitude,latitude,categories,rating,price,numeric_station_id,price_1,price_2,price_3,price_4,rating_2,rating_3,rating_4,rating_5,rating_6,rating_7,rating_8,rating_9,rating_10
dcbcf9c681fbd3e77dfbea6df0e070bc,r_BrIgzYcwo1NAuG9dLbpg,Pai Northern Thai Kitchen,18 Duncan Street,348.20419179844106,-79.38872,43.64784,Thai,9.0,2,0,0,1,0,0,0,0,0,0,0,0,0,1,0
dcbcf9c681fbd3e77dfbea6df0e070bc,Yl2TN9c23ZGLUBSD9ks5Uw,Byblos,11 Duncan Street,290.7012029735632,-79.388123,43.647546,"Mediterranean, Middle Eastern",9.0,4,0,0,0,0,1,0,0,0,0,0,0,0,1,0
dcbcf9c681fbd3e77dfbea6df0e070bc,jGO4T6rGX3EIOwOtg4bZqg,Lobster Burger Bar,214 King Street W,209.3833115627693,-79.386768,43.647443,"Bars, Seafood, Burgers",8.0,2,0,0,1,0,0,0,0,0,0,0,0,1,0,0
dcbcf9c681fbd3e77dfbea6df0e070bc,ocLnCE2E29j-CoBQj1yaSA,Cafe Landwer - Adelaide & University,165 University Avenue,325.37702368069284,-79.38491,43.64875,"Cafes, Breakfast & Brunch, Mediterranean",8.0,2,0,0,1,0,0,0,0,0,0,0,0,1,0,0
dcbcf9c681fbd3e77dfbea6df0e070bc,JMiaNitMzMbJm6Kh0RbT5A,Canoe,66 Wellington Street  W,285.3814984532237,-79.382159,43.646954,Canadian (New),8.0,4,0,0,0,0,1,0,0,0,0,0,0,1,0,0
dcbcf9c681fbd3e77dfbea6df0e070bc,FJMMPL3pxAPYGEPB0Hwlhw,TOCA,181 Wellington Street W,151.9248922383306,-79.3871017,43.6453201,Italian,8.0,4,0,0,0,0,1,0,0,0,0,0,0,1,0,0
dcbcf9c681fbd3e77dfbea6df0e070bc,mZRKH9ngRY92bI_irrHq6w,Richmond Station,1 Richmond Street W,784.562459614809,-79.379285,43.6513729,Canadian (New),9.0,3,0,0,0,1,0,0,0,0,0,0,0,0,1,0
dcbcf9c681fbd3e77dfbea6df0e070bc,QFPS9JBNdOOHVP0C3pSslw,Earls Kitchen + Bar,150 King Street West,266.3493299829041,-79.3839246431072,43.6480134620711,"Canadian (New), Cocktail Bars",7.0,2,0,0,1,0,0,0,0,0,0,0,1,0,0,0
dcbcf9c681fbd3e77dfbea6df0e070bc,dulgBrNtDCGjYcbQa2E6uA,Michael's on Simcoe,100 Simcoe Street,267.4188345708571,-79.3867188,43.6481895,"Steakhouses, Italian, Seafood",8.0,4,0,0,0,0,1,0,0,0,0,0,0,1,0,0
d1de2ddc0ea8a90d00ff717ad60a2f23,B70iTJjcPkuYn8ouUewWgw,Gusto 101,101 Portland Street,989.4153351662892,-79.400309337027,43.645002131066,Italian,8.0,2,1,0,1,0,0,0,0,0,0,0,0,1,0,0
d1de2ddc0ea8a90d00ff717ad60a2f23,mG71gQ5HWl7ut9OCN6NJKA,360 Restaurant,290 Bremner Blvd,449.4288763520468,-79.3898128,43.6422401,Canadian (New),7.0,4,1,0,0,0,1,0,0,0,0,0,1,0,0,0
d1de2ddc0ea8a90d00ff717ad60a2f23,ZumOnWbstgsIE6bJlxw0_Q,Jacobs & Co. Steakhouse,12 Brant Street,911.3325521851016,-79.3980279011192,43.64539876116,Steakhouses,9.0,4,1,0,0,0,1,0,0,0,0,0,0,0,1,0
d1de2ddc0ea8a90d00ff717ad60a2f23,K5Q2vkF5UpytV9Q1rB-5Yg,Akira Back,80 Blue Jays Way,757.1414604699659,-79.3923,43.64541,"Japanese, Korean, Asian Fusion",8.0,4,1,0,0,0,1,0,0,0,0,0,0,1,0,0
d1de2ddc0ea8a90d00ff717ad60a2f23,aLcFhMe6DDJ430zelCpd2A,Khao San Road,11 Charlotte Street,890.6756240181488,-79.39361985450327,43.646412027881496,Thai,8.0,2,1,0,1,0,0,0,0,0,0,0,0,1,0,0
d1de2ddc0ea8a90d00ff717ad60a2f23,_cjPEH9wXhKS-HQe_U3M4Q,Le Sélect Bistro,432 Wellington Street W,720.5670031277884,-79.39685231028895,43.643905577145816,"French, Coffee & Tea, Breakfast & Brunch",8.0,3,1,0,0,1,0,0,0,0,0,0,0,1,0,0
d1de2ddc0ea8a90d00ff717ad60a2f23,b4LmLgVdbhM-nc1IZc5Weg,Rodney's Oyster House,469 King Street W,819.5530050052528,-79.396846,43.644948,Seafood,8.0,3,1,0,0,1,0,0,0,0,0,0,0,1,0,0
d1de2ddc0ea8a90d00ff717ad60a2f23,snw9iNNLpFYZeHotW00uVA,Lee,497 Richmond Street W,1136.6672072464062,-79.3993497,43.64719115126137,Asian Fusion,8.0,3,1,0,0,1,0,0,0,0,0,0,0,1,0,0
d1de2ddc0ea8a90d00ff717ad60a2f23,V9qjoWogqqMWvFFpuASRYw,Evviva Breakfast & Lunch,25 Lower Simcoe,774.758875742948,-79.383301,43.641602,Breakfast & Brunch,8.0,2,1,0,1,0,0,0,0,0,0,0,0,1,0,0
9fd381407b51a700753caec17607a127,r_BrIgzYcwo1NAuG9dLbpg,Pai Northern Thai Kitchen,18 Duncan Street,216.14816367867115,-79.38872,43.64784,Thai,9.0,2,2,0,1,0,0,0,0,0,0,0,0,0,1,0
9fd381407b51a700753caec17607a127,ocLnCE2E29j-CoBQj1yaSA,Cafe Landwer - Adelaide & University,165 University Avenue,163.37720585670863,-79.38491,43.64875,"Cafes, Breakfast & Brunch, Mediterranean",8.0,2,2,0,1,0,0,0,0,0,0,0,0,1,0,0
9fd381407b51a700753caec17607a127,Yl2TN9c23ZGLUBSD9ks5Uw,Byblos,11 Duncan Street,167.30037634243232,-79.388123,43.647546,"Mediterranean, Middle Eastern",9.0,4,2,0,0,0,1,0,0,0,0,0,0,0,1,0
9fd381407b51a700753caec17607a127,ro82qYK_AETB8wNGA5Xdzw,Kōjin,190 University Ave,204.5698601029277,-79.38639829999917,43.64933018157421,"Canadian (New), Wine Bars, Cocktail Bars",8.0,3,2,0,0,1,0,0,0,0,0,0,0,1,0,0
9fd381407b51a700753caec17607a127,jGO4T6rGX3EIOwOtg4bZqg,Lobster Burger Bar,214 King Street W,58.67576166069416,-79.386768,43.647443,"Bars, Seafood, Burgers",8.0,2,2,0,1,0,0,0,0,0,0,0,0,1,0,0
9fd381407b51a700753caec17607a127,JMiaNitMzMbJm6Kh0RbT5A,Canoe,66 Wellington Street  W,318.6391397765999,-79.382159,43.646954,Canadian (New),8.0,4,2,0,0,0,1,0,0,0,0,0,0,1,0,0
9fd381407b51a700753caec17607a127,dulgBrNtDCGjYcbQa2E6uA,Michael's on Simcoe,100 Simcoe Street,77.9347695585264,-79.3867188,43.6481895,"Steakhouses, Italian, Seafood",8.0,4,2,0,0,0,1,0,0,0,0,0,0,1,0,0
9fd381407b51a700753caec17607a127,yY3jNsrpCyKTqQuRuLV8gw,Cactus Club Cafe,77 Adelaide Street W,360.21229732953435,-79.38251803088575,43.64950420768667,"Cocktail Bars, Canadian (New)",8.0,2,2,0,1,0,0,0,0,0,0,0,0,1,0,0
9fd381407b51a700753caec17607a127,gy5pr5bFAjOL5rERSdMCLg,The Keg Steakhouse + Bar - York Street,165 York Street,324.99993736438176,-79.38395891300931,43.650011481693866,"Steakhouses, Bars, Seafood",8.0,3,2,0,0,1,0,0,0,0,0,0,0,1,0,0
f42363acf4af847ca6fcdbe9b48c8290,i--dxuKd_6Dx7mwgQ5nl-g,School Restaurant,70 Fraser Avenue,27.781294534389687,-79.42435,43.63784,"Bakeries, Breakfast & Brunch, Canadian (New)",7.0,2,3,0,1,0,0,0,0,0,0,0,1,0,0,0
f42363acf4af847ca6fcdbe9b48c8290,kOFDVcnj-8fd3doIpCQ06A,Mildred's Temple Kitchen,85 Hanna Avenue,368.4885392838518,-79.4204235076904,43.6399108749312,"Breakfast & Brunch, Canadian (New)",8.0,2,3,0,1,0,0,0,0,0,0,0,0,1,0,0
f42363acf4af847ca6fcdbe9b48c8290,qRTbYc7ennnwfr992kfjdA,Caffino Ristorante,1185 King Street W,169.0533743706547,-79.42547,43.63914,Italian,8.0,2,3,0,1,0,0,0,0,0,0,0,0,1,0,0
f42363acf4af847ca6fcdbe9b48c8290,FCMRBcvrwN01eT6WRaTC6A,The Craft Brasserie & Grille,107 Atlantic Avenue,311.1552315288099,-79.4208196351823,43.6394076328957,"Brasseries, Pubs, American",7.0,2,3,0,1,0,0,0,0,0,0,0,1,0,0,0
f42363acf4af847ca6fcdbe9b48c8290,_5izyrn1qV0uyec65UsdIA,LOCAL Public Eatery - Liberty Village,171 E Liberty Street,400.7041940944936,-79.4192124903202,43.6384689262493,"Sports Bars, Breakfast & Brunch, American",8.0,2,3,0,1,0,0,0,0,0,0,0,0,1,0,0
f42363acf4af847ca6fcdbe9b48c8290,TuJVTcMHZTf7tP6hBS3gRw,Louie Coffee Shop,1187 King Street W,176.4148752929594,-79.4255473,43.6392011,"Coffee & Tea, Coffee & Tea Supplies, Cafes",9.0,1,3,1,0,0,0,0,0,0,0,0,0,0,1,0
f42363acf4af847ca6fcdbe9b48c8290,x6fYvse8sBOZf9y8BOZZmA,Mamakas Taverna,80 Ossington Avenue,944.7009830803512,-79.41986,43.64596,"Greek, Mediterranean",8.0,3,3,0,0,1,0,0,0,0,0,0,0,1,0,0
f42363acf4af847ca6fcdbe9b48c8290,fEGJVOxmBhCHuYDkje-K3g,OEB Breakfast Co. Liberty Village,125 E Liberty Street,630.2489313149772,-79.41623,43.63836,Breakfast & Brunch,9.0,2,3,0,1,0,0,0,0,0,0,0,0,0,1,0
f42363acf4af847ca6fcdbe9b48c8290,PsNcrivvTCs6rAaXN5Verg,Brodflour,8 Pardee Ave,119.6587583441961,-79.4227168,43.6371483,Bakeries,9.0,2,3,0,1,0,0,0,0,0,0,0,0,0,1,0
c4a01864ecb66e9b1ee3023d3205a281,OmZ_Ub_0egPc6eDPD1OWSw,Athens Restaurant,707 Danforth Avenue,260.2934189479426,-79.34341,43.6789599,"Greek, Seafood",8.0,2,4,0,1,0,0,0,0,0,0,0,0,1,0,0
c4a01864ecb66e9b1ee3023d3205a281,1HWH_BE_wMfX88cRoH-NCQ,Sakawa Coffee & Japanese Restaurant,867 Danforth Ave,73.10292439178127,-79.33964,43.67971,Japanese,8.0,2,4,0,1,0,0,0,0,0,0,0,0,1,0,0
c4a01864ecb66e9b1ee3023d3205a281,-7BCZH437U5FjmNJ26llkg,Mr Pide,800 Danforth Avenue,87.24061689155724,-79.34153,43.6797899,"Pizza, Turkish",9.0,2,4,0,1,0,0,0,0,0,0,0,0,0,1,0
c4a01864ecb66e9b1ee3023d3205a281,RXESkOgqAYGoujYTqy2KNg,The Only Cafe,972 Danforth Avenue,223.212255093996,-79.337862,43.6804685,Pubs,8.0,2,4,0,1,0,0,0,0,0,0,0,0,1,0,0
c4a01864ecb66e9b1ee3023d3205a281,lIEahf71RLPJ_rFBJ5fqzQ,Sala Modern Thai Kitchen & Bar,1262 Danforth Avenue,820.5416983291132,-79.3307374790311,43.6819991223223,"Thai, Asian Fusion",9.0,2,4,0,1,0,0,0,0,0,0,0,0,0,1,0
c4a01864ecb66e9b1ee3023d3205a281,gISrxk4A5dfrjDivkC-L-Q,Douce France,820 Danforth Avenue,55.98509692614312,-79.34121613131528,43.67983780387153,"Chocolatiers & Shops, Bakeries, Gift Shops",8.0,2,4,0,1,0,0,0,0,0,0,0,0,1,0,0
c4a01864ecb66e9b1ee3023d3205a281,d_AcktF-fWL9zzvNPg7euQ,Simone's Caribbean Restaurant,596 Danforth Avenue,499.06333020091375,-79.34654,43.67884,Caribbean,9.0,2,4,0,1,0,0,0,0,0,0,0,0,0,1,0
beb87ea54499f95a614653924c99b9c4,FfJD4vO-iYUL2Kr0WWzNYg,The Caledonian,856 College Street,312.0064192840113,-79.42355,43.65439,"Pubs, Scottish, Whiskey Bars",9.0,2,5,0,1,0,0,0,0,0,0,0,0,0,1,0
beb87ea54499f95a614653924c99b9c4,q5xrVJ4kivx_yEfJeOKNYQ,Bar Isabel,797 College Street,418.6142321243327,-79.4207738,43.654631,"Spanish, Tapas Bars",8.0,3,5,0,0,1,0,0,0,0,0,0,0,1,0,0
beb87ea54499f95a614653924c99b9c4,7HrCELR6uv2HkgL7aT_hcQ,Chiado,864 College Street,311.3117934729387,-79.424246886555,43.654186841827,"Seafood, Portuguese",8.0,4,5,0,0,0,1,0,0,0,0,0,0,1,0,0
beb87ea54499f95a614653924c99b9c4,qPVqfJAzC8APF8aWGBtFRA,Antler Kitchen & Bar,1454 Dundas Street West,924.7416599812916,-79.43059,43.64985,Canadian (New),9.0,3,5,0,0,1,0,0,0,0,0,0,0,0,1,0
beb87ea54499f95a614653924c99b9c4,3YKV1eralyrKQqoWOTJMDA,Giulietta,972 College Street,441.995102070162,-79.42764,43.65353,Italian,8.0,3,5,0,0,1,0,0,0,0,0,0,0,1,0,0
beb87ea54499f95a614653924c99b9c4,yQS7bWaBhhGZJ1zeXku4yA,Imm Thai Kitchen,651 College Street,753.264693395795,-79.41598,43.65484,"Thai, Noodles",9.0,2,5,0,1,0,0,0,0,0,0,0,0,0,1,0
beb87ea54499f95a614653924c99b9c4,HHvO4MgBFabsmlInou6viQ,Le Baratin,1600 Dundas Street. W,1126.7663093967328,-79.4351,43.65007,French,9.0,2,5,0,1,0,0,0,0,0,0,0,0,0,1,0
beb87ea54499f95a614653924c99b9c4,jNw0Lnb_HVfhFVWe5q-qmw,Terrazza,372 Harbord Street,314.0895973921892,-79.4223089,43.6590509,Italian,8.0,2,5,0,1,0,0,0,0,0,0,0,0,1,0,0
beb87ea54499f95a614653924c99b9c4,JEXasd9XUHFbt_fIdmdK8g,La Banane,227 Ossington Avenue,951.3885894583022,-79.4203,43.64904,"French, Seafood, Bistros",9.0,4,5,0,0,0,1,0,0,0,0,0,0,0,1,0
1f5bb4fff3139fff3f927f1a4980dc1e,nIwtGMkMyx0elLxVFs1D6A,Aztec's Mine,1986 Bloor Street W,125.76016053871211,-79.4684988,43.65302,Mexican,8.0,2,6,0,1,0,0,0,0,0,0,0,0,1,0,0
1f5bb4fff3139fff3f927f1a4980dc1e,Aj3GKsNMzIpxCaqLruSoFw,MacKenzies High Park,1982 Bloor Street W,137.6615083013379,-79.4684242,43.6528481,Pubs,6.0,2,6,0,1,0,0,0,0,0,0,1,0,0,0,0
1f5bb4fff3139fff3f927f1a4980dc1e,HOGdBz2w9VZbw2yyM-WA3g,The Mugshot Tavern,1729 Bloor Street W,641.0429514996596,-79.45957,43.6546,Bars,8.0,2,6,0,1,0,0,0,0,0,0,0,0,1,0,0
1f5bb4fff3139fff3f927f1a4980dc1e,FwcIo83tMqzU6COsUHBGAg,Whelan's Gate Gastropub,1663 Bloor Street W,899.032289747629,-79.4564438,43.6552887,"Irish Pub, Gastropubs, Whiskey Bars",9.0,2,6,0,1,0,0,0,0,0,0,0,0,0,1,0
1f5bb4fff3139fff3f927f1a4980dc1e,8UiPh7jaIqT_Dm8Qt_9frA,Annette Food Market,240 Annette Street,1005.4223231063706,-79.471127986908,43.6625426477784,"Italian, Pizza, Tapas Bars",8.0,3,6,0,0,1,0,0,0,0,0,0,0,1,0,0
1f5bb4fff3139fff3f927f1a4980dc1e,djKTruHtS4n_vlfOknxjRw,Queen's Pasta Café,2263 Bloor Street W,916.0968002807792,-79.4779248,43.65057609999999,Italian,7.0,2,6,0,1,0,0,0,0,0,0,0,1,0,0,0
1f5bb4fff3139fff3f927f1a4980dc1e,ECOnq58qoeqwPuS59P1W-A,Hannah's Cafe and Bakery,1822 Bloor Street W,382.3421284200175,-79.4625825,43.6542601,"Coffee & Tea, Bakeries, Breakfast & Brunch",7.0,1,6,1,0,0,0,0,0,0,0,0,1,0,0,0
1f5bb4fff3139fff3f927f1a4980dc1e,x1fGFjJEsOWTr3JKA0cjsA,Gatto Wood Oven Pizza,2312 Bloor Street W,1053.9527388947502,-79.47977,43.65062,"Pizza, Italian",8.0,2,6,0,1,0,0,0,0,0,0,0,0,1,0,0
769a6cb25850b809d38c7a2620731b1e,FVLveNsa_rpmJbv5k8onfw,Miyako Sushi,572 Marlee Avenue,198.6279025321776,-79.4441503286362,43.7090825633554,Sushi Bars,8.0,2,7,0,1,0,0,0,0,0,0,0,0,1,0,0
769a6cb25850b809d38c7a2620731b1e,c65l1HepL-5Zqh_2fJ7ezw,Shahi The Royal Roti,349 Marlee Avenue,287.31047804277154,-79.44261,43.70677,Indian,7.0,2,7,0,1,0,0,0,0,0,0,0,1,0,0,0
769a6cb25850b809d38c7a2620731b1e,7qYSXx_SO4W7_PNDqtNlXg,Pita Pavilion,561 Marlee Avenue,166.69984060240165,-79.4437582,43.709379,Mediterranean,9.0,1,7,1,0,0,0,0,0,0,0,0,0,0,1,0
769a6cb25850b809d38c7a2620731b1e,UMM6cJiJkLK50WVuKz6Xvg,Sweet Sushi,262 Marlee Ave,398.9144258630292,-79.442945,43.705794,"Chocolatiers & Shops, Desserts, Custom Cakes",9.0,3,7,0,0,1,0,0,0,0,0,0,0,0,1,0
769a6cb25850b809d38c7a2620731b1e,ZTMvTe0yMh_3gH97Cr2jpQ,Aish Tanoor,994 Eglinton Avenue W,1388.234784989569,-79.42955,43.70038,"Kosher, Middle Eastern",7.0,2,7,0,1,0,0,0,0,0,0,0,1,0,0,0
769a6cb25850b809d38c7a2620731b1e,_cOC9u26PMfSDlNLWpIGTQ,California Sandwiches,2474 Dufferin Street,1283.042584734346,-79.45199,43.7005,Sandwiches,7.0,2,7,0,1,0,0,0,0,0,0,0,1,0,0,0
769a6cb25850b809d38c7a2620731b1e,Il-H2pDli8lBrurPG3YbFA,Domino's Pizza,377 Marlee Avenue,247.13615889676416,-79.44284,43.70711,Pizza,5.0,2,7,0,1,0,0,0,0,0,1,0,0,0,0,0
769a6cb25850b809d38c7a2620731b1e,Vn5q_KflKkND6rGYohqkxQ,I Do! Wedding Cakes,2700 Dufferin Street,1267.6846507840442,-79.453686,43.701856,Desserts,9.0,2,7,0,1,0,0,0,0,0,0,0,0,0,1,0
5539f3700e4ce9e5701353a667924538,x6fYvse8sBOZf9y8BOZZmA,Mamakas Taverna,80 Ossington Avenue,47.72337587178559,-79.41986,43.64596,"Greek, Mediterranean",8.0,3,8,0,0,1,0,0,0,0,0,0,0,1,0,0
5539f3700e4ce9e5701353a667924538,zHNk2BnANwkvHvaXD7yYsg,Té,70 Ossington Avenue,29.20212259133201,-79.41964,43.64575,"Asian Fusion, Korean, Comfort Food",8.0,2,8,0,1,0,0,0,0,0,0,0,0,1,0,0
5539f3700e4ce9e5701353a667924538,xwmwTpzw9XSwK-UT5Ka3HQ,Bellwoods Brewery,124-126 Ossington Avenue,171.72856474854942,-79.42015,43.64713,"Breweries, Canadian (New)",8.0,2,8,0,1,0,0,0,0,0,0,0,0,1,0,0
5539f3700e4ce9e5701353a667924538,uAAWlLdsoUf872F1FKiX1A,Bang Bang Ice Cream,93A Ossington Avenue,63.96176508557639,-79.41923,43.646321,"Desserts, Ice Cream & Frozen Yogurt, Bakeries",9.0,2,8,0,1,0,0,0,0,0,0,0,0,0,1,0
5539f3700e4ce9e5701353a667924538,ZdaZwXC0FByDY3EwNELphw,Union,72A Ossington Avenue,24.30329848612392,-79.41974,43.64577,"French, Wine Bars",8.0,3,8,0,0,1,0,0,0,0,0,0,0,1,0,0
5539f3700e4ce9e5701353a667924538,McVmSLVRJBDWIuQO7D6GJg,Soos,94 Ossington Avenue,72.38318089067492,-79.4197464,43.6462593,Malaysian,8.0,3,8,0,0,1,0,0,0,0,0,0,0,1,0,0
5539f3700e4ce9e5701353a667924538,mzREMIknfmagJugibXrCsQ,Pho Tien Thanh,57 Ossington Avenue,31.36410903142737,-79.41896,43.6455399,Vietnamese,8.0,1,8,1,0,0,0,0,0,0,0,0,0,1,0,0
5539f3700e4ce9e5701353a667924538,JEXasd9XUHFbt_fIdmdK8g,La Banane,227 Ossington Avenue,382.0753359753641,-79.4203,43.64904,"French, Seafood, Bistros",9.0,4,8,0,0,0,1,0,0,0,0,0,0,0,1,0
5539f3700e4ce9e5701353a667924538,_cVCzKQGt23KKW1M07Yvkw,Jules Bistro,924 Queen Street West,284.79129189785823,-79.415938,43.644959,French,8.0,3,8,0,0,1,0,0,0,0,0,0,0,1,0,0
5539f3700e4ce9e5701353a667924538,7gnYWanhD6O7qOF-NfPNhA,Frankie's,994 Queen Street W,156.76859171954314,-79.41842,43.6445099,"Breakfast & Brunch, Diners",8.0,2,8,0,1,0,0,0,0,0,0,0,0,1,0,0
fc62f74abe3d79fa430f55f6f56e5e3a,qaNt4vtVdge_S68DVjw5Jg,The Queen And Beaver Public House,35 Elm Street,184.69216245154124,-79.38334,43.65734,"Pubs, British",8.0,2,9,0,1,0,0,0,0,0,0,0,0,1,0,0
fc62f74abe3d79fa430f55f6f56e5e3a,RtUvSWO_UZ8V3Wpj0n077w,KINKA IZAKAYA ORIGINAL,398 Church Street,374.6047894317963,-79.37890046282942,43.66042406856627,"Japanese, Pubs",8.0,2,9,0,1,0,0,0,0,0,0,0,0,1,0,0
fc62f74abe3d79fa430f55f6f56e5e3a,7ODXq--HE7QpzvWwgk5rMA,Barberian's Steak House,7 Elm Street,94.26514404446434,-79.38212,43.6576,Steakhouses,8.0,4,9,0,0,0,1,0,0,0,0,0,0,1,0,0
fc62f74abe3d79fa430f55f6f56e5e3a,pSMK_FtULKiU-iuh7SMKwg,Blaze Pizza,10 Dundas St. East,126.5726927444923,-79.3800427473602,43.6565313336776,"Pizza, Salad, Fast Food",9.0,2,9,0,1,0,0,0,0,0,0,0,0,0,1,0
fc62f74abe3d79fa430f55f6f56e5e3a,6eRSdODyj9GS0w6zlhrWkg,Adega Restaurante,33 Elm St,178.24653665395036,-79.38323,43.65732,"Portuguese, Spanish",8.0,3,9,0,0,1,0,0,0,0,0,0,0,1,0,0
fc62f74abe3d79fa430f55f6f56e5e3a,mZRKH9ngRY92bI_irrHq6w,Richmond Station,1 Richmond Street W,687.1602906565747,-79.379285,43.6513729,Canadian (New),9.0,3,9,0,0,1,0,0,0,0,0,0,0,0,1,0
fc62f74abe3d79fa430f55f6f56e5e3a,f0v4S0q6Dlf_OQILazIyuw,Konjiki Ramen Downtown,41 Elm Street,211.19083187378945,-79.38358,43.65729,Ramen,8.0,2,9,0,1,0,0,0,0,0,0,0,0,1,0,0
fc62f74abe3d79fa430f55f6f56e5e3a,-av1lZI1JDY_RZN2eTMnWg,Salad King Restaurant,340 Yonge Street,73.04660623029947,-79.38164,43.65766,Thai,7.0,2,9,0,1,0,0,0,0,0,0,0,1,0,0,0
fc62f74abe3d79fa430f55f6f56e5e3a,h3PhHT3wM3alY8Of7Pov7g,Congee Queen,360 Yonge Street,124.83193738077752,-79.381986,43.658302,"Cantonese, Hong Kong Style Cafe, Noodles",8.0,2,9,0,1,0,0,0,0,0,0,0,0,1,0,0
62a1c39596c3d512dfa04f1d29b81035,kstK3o4ZLOEsWyy_vPVQrg,Steady's Jamaican Home Cooking,852 Pape Avenue,22.55021002220956,-79.3467715,43.6839915,"Caribbean, Caterers",9.0,1,10,1,0,0,0,0,0,0,0,0,0,0,1,0
62a1c39596c3d512dfa04f1d29b81035,Jo3Cpvf8fpfcAIFG3TagbQ,Pantheon Restaurant,407 Danforth Avenue,798.7275068511855,-79.35129,43.67744,"Greek, Mediterranean",8.0,2,10,0,1,0,0,0,0,0,0,0,0,1,0,0
62a1c39596c3d512dfa04f1d29b81035,OIdOJaNS8M624F58XGV3PQ,Pizzeria Libretto Danforth,550 Danforth Avenue,601.6999107667773,-79.3475785,43.6785868,"Pizza, Italian",8.0,2,10,0,1,0,0,0,0,0,0,0,0,1,0,0
62a1c39596c3d512dfa04f1d29b81035,nDn2h-_c7Xk4UwM0aiXZlw,Mezes,456 Danforth Avenue,695.481058303127,-79.3502475,43.6781397,"Greek, Mediterranean",8.0,2,10,0,1,0,0,0,0,0,0,0,0,1,0,0
62a1c39596c3d512dfa04f1d29b81035,BnG7Mwl4h1r35M5QBVzQeA,Serano Bakery,830 Pape Avenue,120.86655748029784,-79.3467757,43.6828807400776,Bakeries,8.0,1,10,1,0,0,0,0,0,0,0,0,0,1,0,0
62a1c39596c3d512dfa04f1d29b81035,8QwAWJJ1FtICnE266xISMQ,Tzatziki,873 Pape Avenue,29.7187577067617,-79.346677,43.683965,Greek,5.0,2,10,0,1,0,0,0,0,0,1,0,0,0,0,0
62a1c39596c3d512dfa04f1d29b81035,d_AcktF-fWL9zzvNPg7euQ,Simone's Caribbean Restaurant,596 Danforth Avenue,575.7968054273381,-79.34654,43.67884,Caribbean,9.0,2,10,0,1,0,0,0,0,0,0,0,0,0,1,0
487f2f445a917af1d4fecb653ab5323a,J9vAdD2dCpFuGsxPIn184w,New Orleans Seafood & Steakhouse,267 Scarlett Road,67.33805586180551,-79.50611,43.67775,"Seafood, Cajun/Creole, Steakhouses",10.0,3,11,0,0,1,0,0,0,0,0,0,0,0,0,1
487f2f445a917af1d4fecb653ab5323a,Sk06w4K2iozamTeO4z1ILQ,Jadranka Pastries,257 Scarlett Road,128.81817901736494,-79.5060211,43.6772182,Bakeries,8.0,2,11,0,1,0,0,0,0,0,0,0,0,1,0,0
487f2f445a917af1d4fecb653ab5323a,8p_h4EUe27Tf-d05dyy9_w,Tim Hortons,895 Jane St,904.6712966484188,-79.4955505058169,43.6770596362333,"Cafes, Coffee & Tea",4.0,1,11,1,0,0,0,0,0,1,0,0,0,0,0,0
487f2f445a917af1d4fecb653ab5323a,wycFAH99NUQEICkj3NRvsw,Subway,911 Jane Street,872.1061857425605,-79.4958579540253,43.6777024641006,"Fast Food, Sandwiches",4.0,2,11,0,1,0,0,0,0,1,0,0,0,0,0,0
f1bad47f1bca16159267c0ad3e50fb1a,AYLxEeVq8NKG2UhcBiggrA,850 Degrees Pizzeria,3455 Lakeshore Boulevard W,587.1779011546419,-79.5295791,43.595197,"Pizza, Italian",9.0,2,12,0,1,0,0,0,0,0,0,0,0,0,1,0
f1bad47f1bca16159267c0ad3e50fb1a,38dFw7Yw02rdOY95hfo3tQ,Adriano's Pizza,3329 Lake Shore Boulevard W,210.1107474462447,-79.5250626,43.596199,"Italian, Pizza",8.0,1,12,1,0,0,0,0,0,0,0,0,0,1,0,0
f1bad47f1bca16159267c0ad3e50fb1a,H75ud6IWd0lsbclqb_H0Aw,Trini Gardens Restaurant,3266 Lake Shore Boulevard W,39.04187557691005,-79.52323614187078,43.59717331082447,"Chinese, Caribbean",7.0,1,12,1,0,0,0,0,0,0,0,0,1,0,0,0
f1bad47f1bca16159267c0ad3e50fb1a,iDIKRW0P2Rg1O5Nh59x7ng,Super Burger,3327 Lake Shore Boulevard W,207.4512473805327,-79.52499,43.59621,"Hot Dogs, Burgers",8.0,1,12,1,0,0,0,0,0,0,0,0,0,1,0,0
f1bad47f1bca16159267c0ad3e50fb1a,KpFgHrxoVOiwfpR0f5KXUA,Thrive Lakeshore,3473 Lake Shore Boulevard W,653.3419693834113,-79.53035284796444,43.59499652800835,"Vegan, Vegetarian, Juice Bars & Smoothies",8.0,2,12,0,1,0,0,0,0,0,0,0,0,1,0,0
f1bad47f1bca16159267c0ad3e50fb1a,U-_yRdZqs5W2HNrzD_xvkQ,Falafel Royal,3308 Lake Shore Boulevard W,110.26454980272338,-79.5239716,43.5969391,Falafel,9.0,1,12,1,0,0,0,0,0,0,0,0,0,0,1,0
f1bad47f1bca16159267c0ad3e50fb1a,oRRCe6RruoHE1nMfTlMREA,Black Goat Cafe,3261 Lake Shore Boulevard W,46.341653458251,-79.52254,43.59672,Cafes,8.0,1,12,1,0,0,0,0,0,0,0,0,0,1,0,0
6ac9cdf0b92883715b404d41c779af0b,B70iTJjcPkuYn8ouUewWgw,Gusto 101,101 Portland Street,255.2311170781388,-79.400309337027,43.645002131066,Italian,8.0,2,13,0,1,0,0,0,0,0,0,0,0,1,0,0
6ac9cdf0b92883715b404d41c779af0b,h8vVxwP6FnlkRDONKBHT-w,Chubby's Jamaican Kitchen,104 Portland Street,219.67570132805136,-79.40066,43.64532,Caribbean,8.0,2,13,0,1,0,0,0,0,0,0,0,0,1,0,0
6ac9cdf0b92883715b404d41c779af0b,h_4dPV9M9aYaBliH1Eoeeg,Wvrst,609 King Street W,233.2771380204236,-79.401014855291,43.64418555054,"German, Beer Bar",8.0,2,13,0,1,0,0,0,0,0,0,0,0,1,0,0
6ac9cdf0b92883715b404d41c779af0b,mBOIef7a4hONEbSi_ai8Bw,Beast Pizza,96 Tecumseth Street,231.83226702901123,-79.40578,43.64408,Pizza,8.0,2,13,0,1,0,0,0,0,0,0,0,0,1,0,0
6ac9cdf0b92883715b404d41c779af0b,A7waf6G3cvnLfAqKeLL8DA,Buca,604 King Street W,261.7170140002123,-79.40045,43.64462,Italian,8.0,3,13,0,0,1,0,0,0,0,0,0,0,1,0,0
6ac9cdf0b92883715b404d41c779af0b,FML0YqZ7dLBBC3Suap4_4Q,416 Snack Bar,181 Bathurst Street,248.13943210069445,-79.40385,43.64755,"Tapas/Small Plates, Bars",8.0,2,13,0,1,0,0,0,0,0,0,0,0,1,0,0
6ac9cdf0b92883715b404d41c779af0b,FhZaBOpSqf0pQmsEYxUPyg,Zakkushi on Queen West,620 Queen Street W,258.6435030769084,-79.40546,43.64706,"Japanese, Tapas/Small Plates, Barbeque",9.0,3,13,0,0,1,0,0,0,0,0,0,0,0,1,0
6ac9cdf0b92883715b404d41c779af0b,rl137V_5Hx0cJAV4beVdhA,Campechano Taquería,504 Adelaide Street W,222.19340122693623,-79.40077,43.64586,Mexican,8.0,2,13,0,1,0,0,0,0,0,0,0,0,1,0,0
6ac9cdf0b92883715b404d41c779af0b,snw9iNNLpFYZeHotW00uVA,Lee,497 Richmond Street W,389.80984877766014,-79.3993497,43.64719115126137,Asian Fusion,8.0,3,13,0,0,1,0,0,0,0,0,0,0,1,0,0
6ac9cdf0b92883715b404d41c779af0b,2i0dDzxLuQQAwzxDZVR-1g,Oretta,633 King Street W,214.31678169557208,-79.40163,43.64392,"Italian, Bars",7.0,3,13,0,0,1,0,0,0,0,0,0,1,0,0,0
a385b32a5f6b3de23ce3def7f59ecbc1,tCjlXROlbcaGiBRfU2jaiw,The Keg Steakhouse + Bar,515 Jarvis Street,235.84290882898017,-79.3779253,43.6668345,"Steakhouses, Bars, Seafood",8.0,3,14,0,0,1,0,0,0,0,0,0,0,1,0,0
a385b32a5f6b3de23ce3def7f59ecbc1,nrq5H3LZicjMG0wv7gy08g,Kintaro Izakaya,459 Church Street,238.1826956704256,-79.38006,43.66417,"Japanese, Sushi Bars, Tapas/Small Plates",8.0,2,14,0,1,0,0,0,0,0,0,0,0,1,0,0
a385b32a5f6b3de23ce3def7f59ecbc1,9tfw-OEfpF0qC2hSzRks6g,Hair of the Dog,425 Church Street,276.1376742556212,-79.379592870241,43.662946823805,"Pubs, Comfort Food, Breakfast & Brunch",8.0,2,14,0,1,0,0,0,0,0,0,0,0,1,0,0
a385b32a5f6b3de23ce3def7f59ecbc1,RtUvSWO_UZ8V3Wpj0n077w,KINKA IZAKAYA ORIGINAL,398 Church Street,500.805155578799,-79.37890046282942,43.66042406856627,"Japanese, Pubs",8.0,2,14,0,1,0,0,0,0,0,0,0,0,1,0,0
a385b32a5f6b3de23ce3def7f59ecbc1,1nQMj-F3Oz3IeP9h10CNIA,The Blake House,449 Jarvis Street,31.91013466336881,-79.37718,43.66452,Pubs,8.0,2,14,0,1,0,0,0,0,0,0,0,0,1,0,0
a385b32a5f6b3de23ce3def7f59ecbc1,NoT7u2QNEvsVbH9MIzAzlw,Si Lom Thai Bistro,534 Church Street,288.6166212215832,-79.38082,43.66503,"Thai, Noodles, Seafood",8.0,2,14,0,1,0,0,0,0,0,0,0,0,1,0,0
a385b32a5f6b3de23ce3def7f59ecbc1,saijdv-vXJrvsCfvr7SZOw,Katsuya,66 Gerrard Street E,545.9767542876535,-79.37882,43.65995,"Japanese, Asian Fusion",9.0,2,14,0,1,0,0,0,0,0,0,0,0,0,1,0
a385b32a5f6b3de23ce3def7f59ecbc1,_Gv5HPQBM3fzI9bOUYFYuw,The House On Parliament,454 Parliament Street,763.5288217530564,-79.36794,43.66359,"British, Gastropubs",8.0,2,14,0,1,0,0,0,0,0,0,0,0,1,0,0
a385b32a5f6b3de23ce3def7f59ecbc1,RXyM7VrCiEFthJxQ4bGmBg,Sambucas On Church,489 Church Street,249.62741187523295,-79.38042,43.66511,Italian,7.0,2,14,0,1,0,0,0,0,0,0,0,1,0,0,0
a385b32a5f6b3de23ce3def7f59ecbc1,bKUXKjUIY34BTowDBwFjbQ,The Churchmouse: A Firkin Pub,475 Church Street,232.8276939259371,-79.3801465109641,43.6646112519968,"Pubs, British",7.0,2,14,0,1,0,0,0,0,0,0,0,1,0,0,0
082fdb9cce172f916dde26cc3a543b69,mG71gQ5HWl7ut9OCN6NJKA,360 Restaurant,290 Bremner Blvd,259.52073944861394,-79.3898128,43.6422401,Canadian (New),7.0,4,15,0,0,0,1,0,0,0,0,0,1,0,0,0
082fdb9cce172f916dde26cc3a543b69,0-k_-9YoWXpmtiaLdKeQJQ,The Rec Room,255 Bremner Boulevard,30.378331750715144,-79.38677926085168,43.64125720750635,"Arcades, Bars, Canadian (New)",6.0,2,15,0,1,0,0,0,0,0,0,1,0,0,0,0
082fdb9cce172f916dde26cc3a543b69,r_BrIgzYcwo1NAuG9dLbpg,Pai Northern Thai Kitchen,18 Duncan Street,721.7929847208719,-79.38872,43.64784,Thai,9.0,2,15,0,1,0,0,0,0,0,0,0,0,0,1,0
082fdb9cce172f916dde26cc3a543b69,V9qjoWogqqMWvFFpuASRYw,Evviva Breakfast & Lunch,25 Lower Simcoe,276.93061910175675,-79.383301,43.641602,Breakfast & Brunch,8.0,2,15,0,1,0,0,0,0,0,0,0,0,1,0,0
082fdb9cce172f916dde26cc3a543b69,Yl2TN9c23ZGLUBSD9ks5Uw,Byblos,11 Duncan Street,678.2374199058376,-79.388123,43.647546,"Mediterranean, Middle Eastern",9.0,4,15,0,0,0,1,0,0,0,0,0,0,0,1,0
082fdb9cce172f916dde26cc3a543b69,_7HjUKqU5GQOQirnZzRgWA,Sportsnet Grill,1 Blue Jays Way,238.14888639070813,-79.3895409044114,43.642222906459,"Breakfast & Brunch, Canadian (New), Bars",8.0,2,15,0,1,0,0,0,0,0,0,0,0,1,0,0
082fdb9cce172f916dde26cc3a543b69,gy5pr5bFAjOL5rERSdMCLg,The Keg Steakhouse + Bar - York Street,165 York Street,969.4080842274792,-79.38395891300931,43.650011481693866,"Steakhouses, Bars, Seafood",8.0,3,15,0,0,1,0,0,0,0,0,0,0,1,0,0
082fdb9cce172f916dde26cc3a543b69,9eu2lQMROTKdrPyGkwZLYw,SOCO Kitchen + Bar,75 Lower Simcoe Street,264.33321779182063,-79.3838465349876,43.6426531322953,"Bars, Canadian (New)",7.0,2,15,0,1,0,0,0,0,0,0,0,1,0,0,0
082fdb9cce172f916dde26cc3a543b69,K5Q2vkF5UpytV9Q1rB-5Yg,Akira Back,80 Blue Jays Way,618.6207594557507,-79.3923,43.64541,"Japanese, Korean, Asian Fusion",8.0,4,15,0,0,0,1,0,0,0,0,0,0,1,0,0
27e30ff4939a3992db39e99af9dfe172,mUGDDv2j1qIzbh1JsAoBGQ,Double Sushi,2795 Danforth Avenue,28.51137912361298,-79.29557,43.6893,"Japanese, Sushi Bars",7.0,2,16,0,1,0,0,0,0,0,0,0,1,0,0,0
27e30ff4939a3992db39e99af9dfe172,3tqwUw4XWf-RFEtVROZ2ZQ,Len Duckworth Fish & Chips,2638 Danforth Avenue,332.5356348070938,-79.29998,43.68883,"Seafood, Fish & Chips",8.0,2,16,0,1,0,0,0,0,0,0,0,0,1,0,0
27e30ff4939a3992db39e99af9dfe172,j7Rgozl24WrmDeqFCCKwQg,Grillies,2632 Danforth avenue,346.0076821424998,-79.30015,43.68881,Mexican,8.0,1,16,1,0,0,0,0,0,0,0,0,0,1,0,0
27e30ff4939a3992db39e99af9dfe172,xDmVyd_xl0Hsf3hFmYwrHg,Beach Hill Smokehouse,172 Main Street S,681.3308736997639,-79.3005,43.68409,"Barbeque, Desserts, Sandwiches",9.0,2,16,0,1,0,0,0,0,0,0,0,0,0,1,0
27e30ff4939a3992db39e99af9dfe172,lFva3eDk1GRvJAWKknQKig,Bistro Camino,2750 Danforth Avenue,128.9520218884976,-79.29744,43.68934,French,9.0,2,16,0,1,0,0,0,0,0,0,0,0,0,1,0
27e30ff4939a3992db39e99af9dfe172,lHF2DU6Fzg8EDL1tTFvuIA,Danforth Roti Shop,2844 Danforth Avenue,44.90493452112713,-79.295849861626,43.689695519075,Caribbean,8.0,1,16,1,0,0,0,0,0,0,0,0,0,1,0,0
27e30ff4939a3992db39e99af9dfe172,t_XpjR3_Cf7r9tj3w3vAbw,The Beech Tree,924 Kingston Road,1140.360502105924,-79.2888628,43.6803871,"Wine Bars, British",8.0,2,16,0,1,0,0,0,0,0,0,0,0,1,0,0
6d45f03d18059ba5e61f0d44a0cea59d,-ltD-dHqdZ5-wjAMKYa6Ng,La Bella Managua,872 Bloor Street W,88.5339736473019,-79.42495,43.66232,"Latin American, Nicaraguan",9.0,2,17,0,1,0,0,0,0,0,0,0,0,0,1,0
6d45f03d18059ba5e61f0d44a0cea59d,QPVc_HQYcQicsowyeMPpkA,Tallboys Craft Beer House,838 Bloor Street W,179.09125597164743,-79.42382,43.66256,"Pubs, Canadian (New), Burgers",8.0,2,17,0,1,0,0,0,0,0,0,0,0,1,0,0
6d45f03d18059ba5e61f0d44a0cea59d,KUlm5OuKYJ6nGj0EUwcY9w,Lalibela Ethiopian Restaurant,869 Bloor Street W,82.25317393710735,-79.42474,43.662,Ethiopian,7.0,2,17,0,1,0,0,0,0,0,0,0,1,0,0,0
6d45f03d18059ba5e61f0d44a0cea59d,gtcsOodbmk4E0TulYHnlHA,Northwood,815 W Bloor Street,307.59784806060816,-79.42204,43.66248,"Cafes, Cocktail Bars",8.0,2,17,0,1,0,0,0,0,0,0,0,0,1,0,0
6d45f03d18059ba5e61f0d44a0cea59d,dhvePGMLjWvl4fhk9lgxew,Civil Liberties,878 Bloor Street W,64.80899601468349,-79.4251403,43.662099,Cocktail Bars,9.0,2,17,0,1,0,0,0,0,0,0,0,0,0,1,0
6d45f03d18059ba5e61f0d44a0cea59d,DD_dSlQKcln7VXbN1qxcLA,Selam Restaurant & Lounge,812 Bloor Street W,269.1577873537172,-79.42269,43.66279,Ethiopian,9.0,2,17,0,1,0,0,0,0,0,0,0,0,0,1,0
6d45f03d18059ba5e61f0d44a0cea59d,FfJD4vO-iYUL2Kr0WWzNYg,The Caledonian,856 College Street,840.1605974572739,-79.42355,43.65439,"Pubs, Scottish, Whiskey Bars",9.0,2,17,0,1,0,0,0,0,0,0,0,0,0,1,0
6d45f03d18059ba5e61f0d44a0cea59d,UsKmYp0m8VYWM96tkGm2vQ,African Palace,977 Bloor Street W,271.81173662309857,-79.42895,43.66107,"Ethiopian, African",8.0,2,17,0,1,0,0,0,0,0,0,0,0,1,0,0
6d45f03d18059ba5e61f0d44a0cea59d,yQS7bWaBhhGZJ1zeXku4yA,Imm Thai Kitchen,651 College Street,1091.7354875813876,-79.41598,43.65484,"Thai, Noodles",9.0,2,17,0,1,0,0,0,0,0,0,0,0,0,1,0
44bdbe8a2ac75fbe4cc0edf41fe1d4fa,t28yDI4DsxQmIGnb0gtoZQ,Yukashi Japanese Cuisine,643A Mount Pleasant Road,1320.0828692632556,-79.3884999,43.7049499,Japanese,9.0,4,18,0,0,0,1,0,0,0,0,0,0,0,1,0
44bdbe8a2ac75fbe4cc0edf41fe1d4fa,ts_kVtBEAJsdmdoqxRDdRQ,Tabule Restaurant,2009 Yonge Street,555.9851525018408,-79.396863,43.700983,"Middle Eastern, Vegan, Vegetarian",8.0,2,18,0,1,0,0,0,0,0,0,0,0,1,0,0
44bdbe8a2ac75fbe4cc0edf41fe1d4fa,m_KxjrHzcVgYgtiPlmqFYA,Zezafoun Syrian Cuisine,4 Manor Road E,719.0644014312204,-79.39712,43.70267,"Syrian, Middle Eastern, Arabic",9.0,2,18,0,1,0,0,0,0,0,0,0,0,0,1,0
44bdbe8a2ac75fbe4cc0edf41fe1d4fa,ohZEAOsjOYPINsqaqKnzfA,Flaming Stove,21 Davisville Avenue,412.5334793904457,-79.3957672,43.6982689,"Middle Eastern, Diners, Breakfast & Brunch",9.0,1,18,1,0,0,0,0,0,0,0,0,0,0,1,0
44bdbe8a2ac75fbe4cc0edf41fe1d4fa,PIw9pJ4d1hKOGAylByxzQw,Hokkaido Ramen Santouka,2057 Yonge St,658.3635569044372,-79.39708,43.7021299,Ramen,9.0,2,18,0,1,0,0,0,0,0,0,0,0,0,1,0
44bdbe8a2ac75fbe4cc0edf41fe1d4fa,GO3d6vQBfByJN93Hco4dOQ,Megumi Mazesoba,46 Saint Clair Avenue E,1121.9622065702438,-79.39196,43.68876,Japanese,9.0,2,18,0,1,0,0,0,0,0,0,0,0,0,1,0
44bdbe8a2ac75fbe4cc0edf41fe1d4fa,YnHY2M-6Q5Lz_Loi8rZ2Ow,Khau Gully,1991 Yonge Street,519.7167893948927,-79.39673,43.70055,Indian,8.0,2,18,0,1,0,0,0,0,0,0,0,0,1,0,0
44bdbe8a2ac75fbe4cc0edf41fe1d4fa,UV3oegQXN8tWtm8azFPZ2w,Kramer's Bar & Grill,1915 Yonge Street,393.850870293196,-79.39639,43.69862,"American, Sandwiches, Pubs",6.0,2,18,0,1,0,0,0,0,0,0,1,0,0,0,0
44bdbe8a2ac75fbe4cc0edf41fe1d4fa,jVefoZbu5VF80CCB1Q2MaA,Little Sister,2031 Yonge Street,604.6503023707361,-79.3970751,43.7015676,"Indonesian, Bars",7.0,2,18,0,1,0,0,0,0,0,0,0,1,0,0,0
aa44f34bf848cea7d5570c51697d8ac4,VEfzBuWTF8wa6jQub5ArMw,Vindaloo Indian Cuisine,2891 Kingston Road,873.1566341132211,-79.2352524,43.7223816,Indian,8.0,2,19,0,1,0,0,0,0,0,0,0,0,1,0,0
aa44f34bf848cea7d5570c51697d8ac4,H_xtDKsVhAGTAdMguD5LtQ,Subiksha Foods,2633 Eglinton Avenue E,1116.2456340712808,-79.2516812,43.7358005,"Indian, Vegetarian",9.0,1,19,1,0,0,0,0,0,0,0,0,0,0,1,0
aa44f34bf848cea7d5570c51697d8ac4,kTHraDyzfXvW-98VT-P3mg,T-Bones Sizzling Steaks & Burgers Drive-In Restaurant,2540 Eglinton Avenue E,1354.5091473521088,-79.25612,43.7354,"Burgers, Steakhouses",6.0,2,19,0,1,0,0,0,0,0,0,1,0,0,0,0
aa44f34bf848cea7d5570c51697d8ac4,yPR8Bh55-9NXmooZS7lrLA,Royal Congee Chinese Cuisine,4 Greystone Walk Drive,767.6346563338999,-79.25267,43.72469,Chinese,9.0,2,19,0,1,0,0,0,0,0,0,0,0,0,1,0
aa44f34bf848cea7d5570c51697d8ac4,VHamhfpM6WMxRE9cvRpnNw,Big Boy's Burgers,2851 Kingston Road,877.111089251755,-79.236,43.7216,"Burgers, Poutineries, Canadian (New)",8.0,1,19,1,0,0,0,0,0,0,0,0,0,1,0,0
aa44f34bf848cea7d5570c51697d8ac4,SlBl7jXhgv85tkuoTz9IOw,Working Dog Saloon,3676 St Clair Avenue E,971.6152494773944,-79.24982,43.71942,Sports Bars,7.0,2,19,0,1,0,0,0,0,0,0,0,1,0,0,0
aa44f34bf848cea7d5570c51697d8ac4,gyGHpCcdzLPPZnXn1Pj7IQ,Ghareeb Nawaz,1071 Danforth Road,942.391153175806,-79.2467836663127,43.735258418843,"Indian, Pakistani",8.0,1,19,1,0,0,0,0,0,0,0,0,0,1,0,0
aa44f34bf848cea7d5570c51697d8ac4,o6C2C_p7CHTTV5eQluSBuQ,Pizzaville,2600 Eglinton Avenue E,1245.4422272448617,-79.253221,43.736101,Pizza,10.0,2,19,0,1,0,0,0,0,0,0,0,0,0,0,1
5ee5f79fc51737623d425310eb0bf02b,GO3d6vQBfByJN93Hco4dOQ,Megumi Mazesoba,46 Saint Clair Avenue E,379.59412045953405,-79.39196,43.68876,Japanese,9.0,2,20,0,1,0,0,0,0,0,0,0,0,0,1,0
5ee5f79fc51737623d425310eb0bf02b,0cpLF0LFQHHRFNlL0iy_Aw,Union Social Eatery,21 Saint Clair Avenue W,364.5493441008551,-79.3950692564249,43.687794516424,"American, Canadian (New)",8.0,2,20,0,1,0,0,0,0,0,0,0,0,1,0,0
5ee5f79fc51737623d425310eb0bf02b,MOB5oCEKCw3S76SsiuQjqA,Mary Be Kitchen,21B St. Clair Avenue W,384.1300408857313,-79.3949,43.68769,Canadian (New),9.0,2,20,0,1,0,0,0,0,0,0,0,0,0,1,0
5ee5f79fc51737623d425310eb0bf02b,67Pa_CtXthgJzXfY8JzLDQ,Holy Chuck,1450 Yonge Street,406.99248741570034,-79.39406,43.68753,Burgers,7.0,2,20,0,1,0,0,0,0,0,0,0,1,0,0,0
5ee5f79fc51737623d425310eb0bf02b,yQCRlPOYFo_95f1sTyxwHg,Sushi Gen,1560 Yonge Street,126.01422028342915,-79.39507137371784,43.68995147768256,Sushi Bars,6.0,2,20,0,1,0,0,0,0,0,0,1,0,0,0,0
5ee5f79fc51737623d425310eb0bf02b,C_g3n0TGN9IVtwED4WiavA,Sunny Morning,1392 Yonge Street,525.1684995270649,-79.3935545,43.6865257,Breakfast & Brunch,8.0,2,20,0,1,0,0,0,0,0,0,0,0,1,0,0
5ee5f79fc51737623d425310eb0bf02b,kLfzthw4Y6Wwp3DC_-8EmA,The Bagel House,1438 Yonge Street,433.4916044211957,-79.39398,43.68729,Bagels,8.0,1,20,1,0,0,0,0,0,0,0,0,0,1,0,0
5ee5f79fc51737623d425310eb0bf02b,ohZEAOsjOYPINsqaqKnzfA,Flaming Stove,21 Davisville Avenue,792.2493107004906,-79.3957672,43.6982689,"Middle Eastern, Diners, Breakfast & Brunch",9.0,1,20,1,0,0,0,0,0,0,0,0,0,0,1,0
5ee5f79fc51737623d425310eb0bf02b,Cra7jGcAh_McPTHpm9YlTQ,Umami Poke,1252 Yonge Street,917.4323591564294,-79.39229,43.68318,"Hawaiian, Seafood, Poke",9.0,2,20,0,1,0,0,0,0,0,0,0,0,0,1,0
5ee5f79fc51737623d425310eb0bf02b,KtSEqZbGV1WHgOgtSMEZFQ,Capocaccia Trattoria,1366 Yonge Street,602.5104217736108,-79.393189,43.6858784,"Pizza, Italian",7.0,2,20,0,1,0,0,0,0,0,0,0,1,0,0,0
76ff77a0c8d2de7ff02ab1ce2b719e22,mZRKH9ngRY92bI_irrHq6w,Richmond Station,1 Richmond Street W,1239.1287247037762,-79.379285,43.6513729,Canadian (New),9.0,3,21,0,0,1,0,0,0,0,0,0,0,0,1,0
76ff77a0c8d2de7ff02ab1ce2b719e22,pwtTn72x7Nqp1imaXw9LvQ,Mercatto,101 College Street,238.77871072308332,-79.38755551742875,43.66018257611177,Italian,7.0,2,21,0,1,0,0,0,0,0,0,0,1,0,0,0
76ff77a0c8d2de7ff02ab1ce2b719e22,_BAewGvIIzrNJtCzViIvSQ,Omai Restaurant,3 Baldwin Street,388.31635843529256,-79.39234,43.6561,Japanese,8.0,2,21,0,1,0,0,0,0,0,0,0,0,1,0,0
76ff77a0c8d2de7ff02ab1ce2b719e22,VS0Tm4uB_oZ7zGcANOl8uw,Dzo Viet Eatery,308 Dundas Street W,547.4906068365736,-79.39178,43.65445,Vietnamese,8.0,2,21,0,1,0,0,0,0,0,0,0,0,1,0,0
76ff77a0c8d2de7ff02ab1ce2b719e22,KR8ErN2eKUlmohxmYDLBBg,Koh Lipe,35 Baldwin Street,457.7393612986497,-79.39347,43.65586,Thai,8.0,2,21,0,1,0,0,0,0,0,0,0,0,1,0,0
76ff77a0c8d2de7ff02ab1ce2b719e22,RtUvSWO_UZ8V3Wpj0n077w,KINKA IZAKAYA ORIGINAL,398 Church Street,919.7254497569756,-79.37890046282942,43.66042406856627,"Japanese, Pubs",8.0,2,21,0,1,0,0,0,0,0,0,0,0,1,0,0
76ff77a0c8d2de7ff02ab1ce2b719e22,Sr-_q9OcQCmbkjMxZhHgjw,Prenup Pub,191 College Street,369.711515921884,-79.3947601,43.65868,"Gastropubs, Venues & Event Spaces, American",7.0,2,21,0,1,0,0,0,0,0,0,0,1,0,0,0
76ff77a0c8d2de7ff02ab1ce2b719e22,saijdv-vXJrvsCfvr7SZOw,Katsuya,66 Gerrard Street E,923.4188021115732,-79.37882,43.65995,"Japanese, Asian Fusion",9.0,2,21,0,1,0,0,0,0,0,0,0,0,0,1,0
76ff77a0c8d2de7ff02ab1ce2b719e22,tCjlXROlbcaGiBRfU2jaiw,The Keg Steakhouse + Bar,515 Jarvis Street,1301.0504834464557,-79.3779253,43.6668345,"Steakhouses, Bars, Seafood",8.0,3,21,0,0,1,0,0,0,0,0,0,0,1,0,0
76ff77a0c8d2de7ff02ab1ce2b719e22,f5O7v_X_jCg2itqacRfxhg,Sansotei Ramen,179 Dundas Street W,558.1093855311258,-79.38643,43.655,"Ramen, Noodles",8.0,2,21,0,1,0,0,0,0,0,0,0,0,1,0,0
a3246dc710b72e282aabc15520392d98,FjTihEfjgq9dm3IJ7S888Q,Local 1794,1794 Danforth Avenue,1026.8261168361628,-79.31881,43.68459,"Canadian (New), Gastropubs",8.0,2,22,0,1,0,0,0,0,0,0,0,0,1,0,0
a3246dc710b72e282aabc15520392d98,xWlb7E10Ysb8PxM0eciecA,Oak Park Deli,213 Oak Park Avenue,348.98749709196363,-79.31004,43.69388,"Delis, Sandwiches",9.0,1,22,1,0,0,0,0,0,0,0,0,0,0,1,0
a3246dc710b72e282aabc15520392d98,biwgibn9S6TmBV0jhBc3dA,Family Bakery Cafe,1220 Woodbine Avenue,154.45944679256849,-79.3158430476369,43.6923763300292,Bakeries,9.0,1,22,1,0,0,0,0,0,0,0,0,0,0,1,0
a3246dc710b72e282aabc15520392d98,0yr2L_2CVaLV9SLIGWngPA,Cafe Cocoro,1989 Danforth Avenue,909.1886275795868,-79.31485,43.68503,"Korean, Bakeries, Coffee & Tea",9.0,1,22,1,0,0,0,0,0,0,0,0,0,0,1,0
a3246dc710b72e282aabc15520392d98,2Xh-ZYlvm1SxcKdEaD51DA,Budapest Restaurant,2183 Danforth Avenue,851.3635963008377,-79.30999661492088,43.68618589357487,Hungarian,9.0,2,22,0,1,0,0,0,0,0,0,0,0,0,1,0
a3246dc710b72e282aabc15520392d98,Lpbo9wYj4pu58vJ7tlh-4w,Hirut,2050 Danforth Ave,835.069163522017,-79.31388,43.68566,"Ethiopian, Music Venues",9.0,2,22,0,1,0,0,0,0,0,0,0,0,0,1,0
a3246dc710b72e282aabc15520392d98,ngdC2c9FFkyepjqJRRcLXw,Trecce,1792 Danforth Avenue,1026.9460106518509,-79.3188472803566,43.6845613035206,"Italian, Pizza, Seafood",7.0,3,22,0,0,1,0,0,0,0,0,0,1,0,0,0
9447917367c25ac832d404c1a4696615,PIw9pJ4d1hKOGAylByxzQw,Hokkaido Ramen Santouka,2057 Yonge St,113.45370107359714,-79.39708,43.7021299,Ramen,9.0,2,23,0,1,0,0,0,0,0,0,0,0,0,1,0
9447917367c25ac832d404c1a4696615,m_KxjrHzcVgYgtiPlmqFYA,Zezafoun Syrian Cuisine,4 Manor Road E,73.26868747072886,-79.39712,43.70267,"Syrian, Middle Eastern, Arabic",9.0,2,23,0,1,0,0,0,0,0,0,0,0,0,1,0
9447917367c25ac832d404c1a4696615,jVefoZbu5VF80CCB1Q2MaA,Little Sister,2031 Yonge Street,169.39751600991994,-79.3970751,43.7015676,"Indonesian, Bars",7.0,2,23,0,1,0,0,0,0,0,0,0,1,0,0,0
9447917367c25ac832d404c1a4696615,ts_kVtBEAJsdmdoqxRDdRQ,Tabule Restaurant,2009 Yonge Street,236.06394642163917,-79.396863,43.700983,"Middle Eastern, Vegan, Vegetarian",8.0,2,23,0,1,0,0,0,0,0,0,0,0,1,0,0
9447917367c25ac832d404c1a4696615,LCb2moBNkcBto_32rmZJ5A,Echo Sushi,2036 Yonge Street,192.3324423534513,-79.39749,43.70127,"Sushi Bars, Japanese",8.0,2,23,0,1,0,0,0,0,0,0,0,0,1,0,0
9447917367c25ac832d404c1a4696615,wNXw53wmePcf_V3rF18LUg,Grazie Ristorante,2373 Yonge Street,712.0166460834886,-79.39852,43.70934,Italian,8.0,2,23,0,1,0,0,0,0,0,0,0,0,1,0,0
9447917367c25ac832d404c1a4696615,wfnvI08SMHeIH6_lOeZ7xA,Mariachi's Restaurant,2084 Yonge St,95.007400834256,-79.3976,43.70214,Mexican,7.0,2,23,0,1,0,0,0,0,0,0,0,1,0,0,0
9447917367c25ac832d404c1a4696615,YnHY2M-6Q5Lz_Loi8rZ2Ow,Khau Gully,1991 Yonge Street,280.80521916546684,-79.39673,43.70055,Indian,8.0,2,23,0,1,0,0,0,0,0,0,0,0,1,0,0
9447917367c25ac832d404c1a4696615,t28yDI4DsxQmIGnb0gtoZQ,Yukashi Japanese Cuisine,643A Mount Pleasant Road,778.2896879506474,-79.3884999,43.7049499,Japanese,9.0,4,23,0,0,0,1,0,0,0,0,0,0,0,1,0
71bf1ff10731929ec44b9dcce72edba6,KENynjpbyq33DjGWXOip2Q,Pizza Nova,3928 Keele Street,806.8675292529815,-79.4914169311523,43.762767791748,Pizza,8.0,1,24,1,0,0,0,0,0,0,0,0,0,1,0,0
71bf1ff10731929ec44b9dcce72edba6,_2ql5K9XZDk0lYiEgdmlLg,Masala Cafe,59 Four Winds Drive.,224.564072309048,-79.4988469406962,43.7631541502572,Indian,6.0,1,24,1,0,0,0,0,0,0,0,1,0,0,0,0
71bf1ff10731929ec44b9dcce72edba6,61eXtTmhDepujO7_IdA9-w,Caribbean Heat Family Restaurant,1300 Finch Avenue W,909.52785762751,-79.48984,43.76484,"Caribbean, Chinese",6.0,2,24,0,1,0,0,0,0,0,0,1,0,0,0,0
7a666ee6c60a7f8ffec9334924d36c6a,_cjPEH9wXhKS-HQe_U3M4Q,Le Sélect Bistro,432 Wellington Street W,227.41868120910837,-79.39685231028895,43.643905577145816,"French, Coffee & Tea, Breakfast & Brunch",8.0,3,25,0,0,1,0,0,0,0,0,0,0,1,0,0
7a666ee6c60a7f8ffec9334924d36c6a,aLcFhMe6DDJ430zelCpd2A,Khao San Road,11 Charlotte Street,380.5852899834916,-79.39361985450327,43.646412027881496,Thai,8.0,2,25,0,1,0,0,0,0,0,0,0,0,1,0,0
7a666ee6c60a7f8ffec9334924d36c6a,K5Q2vkF5UpytV9Q1rB-5Yg,Akira Back,80 Blue Jays Way,295.52024806239814,-79.3923,43.64541,"Japanese, Korean, Asian Fusion",8.0,4,25,0,0,0,1,0,0,0,0,0,0,1,0,0
7a666ee6c60a7f8ffec9334924d36c6a,b4LmLgVdbhM-nc1IZc5Weg,Rodney's Oyster House,469 King Street W,296.04677795917763,-79.396846,43.644948,Seafood,8.0,3,25,0,0,1,0,0,0,0,0,0,0,1,0,0
7a666ee6c60a7f8ffec9334924d36c6a,r_BrIgzYcwo1NAuG9dLbpg,Pai Northern Thai Kitchen,18 Duncan Street,702.8412702569668,-79.38872,43.64784,Thai,9.0,2,25,0,1,0,0,0,0,0,0,0,0,0,1,0
7a666ee6c60a7f8ffec9334924d36c6a,B70iTJjcPkuYn8ouUewWgw,Gusto 101,101 Portland Street,531.0707536058619,-79.400309337027,43.645002131066,Italian,8.0,2,25,0,1,0,0,0,0,0,0,0,0,1,0,0
7a666ee6c60a7f8ffec9334924d36c6a,d8Kz48UDfZ0MPuQpGy2r0Q,Kost,80 Blue Jays Way,295.52024806239814,-79.3923,43.64541,"American, Breakfast & Brunch",7.0,3,25,0,0,1,0,0,0,0,0,0,1,0,0,0
7a666ee6c60a7f8ffec9334924d36c6a,ZumOnWbstgsIE6bJlxw0_Q,Jacobs & Co. Steakhouse,12 Brant Street,399.473475403285,-79.3980279011192,43.64539876116,Steakhouses,9.0,4,25,0,0,0,1,0,0,0,0,0,0,0,1,0
7a666ee6c60a7f8ffec9334924d36c6a,VRwT0pscR5vESCrAnUpNwQ,Wilbur Mexicana,552 King Street W,390.4323633462034,-79.39866,43.64494,Mexican,8.0,2,25,0,1,0,0,0,0,0,0,0,0,1,0,0
7a666ee6c60a7f8ffec9334924d36c6a,mG71gQ5HWl7ut9OCN6NJKA,360 Restaurant,290 Bremner Blvd,371.5793841312997,-79.3898128,43.6422401,Canadian (New),7.0,4,25,0,0,0,1,0,0,0,0,0,1,0,0,0
df05fe5ca5c71ce120962deaac85c1fa,O_UC_izJXcAmkm6HlEyGSA,Playa Cabana,111 Dupont Street,316.6139304249451,-79.4011840224266,43.6759577692695,"Mexican, Bars",8.0,2,26,0,1,0,0,0,0,0,0,0,0,1,0,0
df05fe5ca5c71ce120962deaac85c1fa,K3NW8TEu4QRQvFvHer8v4A,Joso's,202 Davenport Road,369.5954302602364,-79.39607,43.6751099,Seafood,9.0,3,26,0,0,1,0,0,0,0,0,0,0,0,1,0
df05fe5ca5c71ce120962deaac85c1fa,_T7f2wUgNlJqxsR-cR89SQ,Scaramouche Restaurant Pasta Bar & Grill,1 Benvenuto Place,405.8362009259197,-79.39991,43.68155,"French, Bars",9.0,4,26,0,0,0,1,0,0,0,0,0,0,0,1,0
df05fe5ca5c71ce120962deaac85c1fa,5XVE1NtoMNbXJJcLTj1qeA,Osteria Giulia,134 Avenue Road,427.6630631331116,-79.39668,43.67431,Italian,9.0,4,26,0,0,0,1,0,0,0,0,0,0,0,1,0
df05fe5ca5c71ce120962deaac85c1fa,VA95qAV2PRH9gtTi2Vfv4Q,Trattoria Nervosa,75 Yorkville Avenue,965.3896114903516,-79.39104,43.67101,"Italian, Pizza, Salad",8.0,2,26,0,1,0,0,0,0,0,0,0,0,1,0,0
df05fe5ca5c71ce120962deaac85c1fa,CNPnbJlMmCx08geOvDmH7A,Blu Ristorante,90 Avenue Road,650.6722740592053,-79.396085,43.67239,Italian,8.0,3,26,0,0,1,0,0,0,0,0,0,0,1,0,0
df05fe5ca5c71ce120962deaac85c1fa,JG9UpsFR6hrqQqsKh_RyaQ,PLANTA Yorkville,1221 Bay Street,1119.0428401665986,-79.38945,43.67028,"Vegetarian, Pizza, Sushi Bars",8.0,2,26,0,1,0,0,0,0,0,0,0,0,1,0,0
df05fe5ca5c71ce120962deaac85c1fa,u71djaZjecGVU1MqMevQ4g,Ristorante Sotto Sotto,120 Avenue Road,492.2868931126016,-79.39646,43.67374,Italian,8.0,3,26,0,0,1,0,0,0,0,0,0,0,1,0,0
df05fe5ca5c71ce120962deaac85c1fa,LHwzyN5cllTfLuZ8v2k_Bg,Le Paradis Brasserie Bistro,166 Bedford Road,352.5621266740635,-79.40025,43.67506,"French, Brasseries, Wine Bars",7.0,2,26,0,1,0,0,0,0,0,0,0,1,0,0,0
e4481e45d22462b01aca9513d8f5674e,72_6srKAdZPSHCGNwK2Hfg,Eden Trattoria,58 Marine Parade Drive,1094.4115254230364,-79.47709,43.62747,"Italian, Tapas Bars",7.0,2,27,0,1,0,0,0,0,0,0,0,1,0,0,0
e4481e45d22462b01aca9513d8f5674e,zIyqiWYKrCvAdGeWXXBxFw,Veloute Bistro & Catering,2045 Lakeshore Blvd W,675.1361049091253,-79.47460124138172,43.6313790341776,"Italian, Wine Bars, Bistros",8.0,3,27,0,0,1,0,0,0,0,0,0,0,1,0,0
e4481e45d22462b01aca9513d8f5674e,ngUPSlk_T8KUl5XJvA9yhg,Lola's Gelato,14B Brookers Lane,1237.739381663053,-79.4784155023183,43.6268675052894,"Coffee & Tea, Ice Cream & Frozen Yogurt, Patisserie/Cake Shop",9.0,2,27,0,1,0,0,0,0,0,0,0,0,0,1,0
e4481e45d22462b01aca9513d8f5674e,wh_td2_DBlD4KnFgFevW4A,Sunnyside Pavilion Cafe,1755 Lake Shore Boulevard W,906.2710832856908,-79.45739,43.6377,"Diners, Cafes",6.0,2,27,0,1,0,0,0,0,0,0,1,0,0,0,0
e4481e45d22462b01aca9513d8f5674e,A1Xgwse4245M7bTglE5jXA,Firkin on the Bay,68 Marine Parade Drive,1246.8364135377487,-79.4772217064191,43.6260155768868,Pubs,7.0,2,27,0,1,0,0,0,0,0,0,0,1,0,0,0
e4481e45d22462b01aca9513d8f5674e,ydYaEuoB-6XX__XFrny0Uw,Cafe Cocoa Boulangerie,58 Marine Parade Drive,1094.4115254230364,-79.47709,43.62747,"Coffee & Tea, Bakeries, Persian/Iranian",5.0,2,27,0,1,0,0,0,0,0,1,0,0,0,0,0
3754aff9599513c7ba4e4649ea3818dd,RtUvSWO_UZ8V3Wpj0n077w,KINKA IZAKAYA ORIGINAL,398 Church Street,285.9013096598129,-79.37890046282942,43.66042406856627,"Japanese, Pubs",8.0,2,28,0,1,0,0,0,0,0,0,0,0,1,0,0
3754aff9599513c7ba4e4649ea3818dd,saijdv-vXJrvsCfvr7SZOw,Katsuya,66 Gerrard Street E,312.98972170491226,-79.37882,43.65995,"Japanese, Asian Fusion",9.0,2,28,0,1,0,0,0,0,0,0,0,0,0,1,0
3754aff9599513c7ba4e4649ea3818dd,4Ua5_CI0rKq3ar5hUTUprw,KINTON RAMEN CHURCH,396 Church Street,286.57669501201167,-79.37891139274227,43.66042407749509,"Ramen, Noodles",8.0,2,28,0,1,0,0,0,0,0,0,0,0,1,0,0
3754aff9599513c7ba4e4649ea3818dd,9tfw-OEfpF0qC2hSzRks6g,Hair of the Dog,425 Church Street,292.0898467715204,-79.379592870241,43.662946823805,"Pubs, Comfort Food, Breakfast & Brunch",8.0,2,28,0,1,0,0,0,0,0,0,0,0,1,0,0
3754aff9599513c7ba4e4649ea3818dd,nrq5H3LZicjMG0wv7gy08g,Kintaro Izakaya,459 Church Street,394.0266223067364,-79.38006,43.66417,"Japanese, Sushi Bars, Tapas/Small Plates",8.0,2,28,0,1,0,0,0,0,0,0,0,0,1,0,0
3754aff9599513c7ba4e4649ea3818dd,ALkOqlWODyxPg5VSp0HLrg,Zakkushi On Carlton,193 Carlton Street,470.0431638984049,-79.37062,43.66343,"Japanese, Tapas/Small Plates, Barbeque",8.0,3,28,0,0,1,0,0,0,0,0,0,0,1,0,0
3754aff9599513c7ba4e4649ea3818dd,_Gv5HPQBM3fzI9bOUYFYuw,The House On Parliament,454 Parliament Street,685.2333778078535,-79.36794,43.66359,"British, Gastropubs",8.0,2,28,0,1,0,0,0,0,0,0,0,0,1,0,0
3754aff9599513c7ba4e4649ea3818dd,tCjlXROlbcaGiBRfU2jaiw,The Keg Steakhouse + Bar,515 Jarvis Street,548.2793774983788,-79.3779253,43.6668345,"Steakhouses, Bars, Seafood",8.0,3,28,0,0,1,0,0,0,0,0,0,0,1,0,0
3754aff9599513c7ba4e4649ea3818dd,Sk0Ycurq7D083Qs8x65b_Q,George Restaurant,111 Queen Street E,978.3722878073444,-79.37432933100068,43.65337263523713,"Canadian (New), Cocktail Bars",9.0,4,28,0,0,0,1,0,0,0,0,0,0,0,1,0
05d7abba295be4af9e74ca3ec241ebd7,pkxhsLgD1Ai_P0I3_NofbQ,Isabella's Mochi Donut Boutique,2066 Queen St East,229.21061615194756,-79.297255,43.670795,"Japanese, Breakfast & Brunch, Donuts",8.0,2,29,0,1,0,0,0,0,0,0,0,0,1,0,0
05d7abba295be4af9e74ca3ec241ebd7,XbOr_yFpsPqTLefgc9I99g,Castro's Lounge,2116 Queen St E,57.85000289414894,-79.29489,43.6713499,Pubs,8.0,2,29,0,1,0,0,0,0,0,0,0,0,1,0,0
05d7abba295be4af9e74ca3ec241ebd7,9jY0VAudPcYJjyokdZjy_w,Yumei Sushi,2116 Queen Street E,57.85000289414894,-79.29489,43.6713499,"Sushi Bars, Japanese",8.0,2,29,0,1,0,0,0,0,0,0,0,0,1,0,0
05d7abba295be4af9e74ca3ec241ebd7,bhoJYB0ArSqRe-Q82BI4vA,Kyouka Ramen,2222 Queen St E,533.8944475441215,-79.288133,43.6726826,Ramen,9.0,2,29,0,1,0,0,0,0,0,0,0,0,0,1,0
05d7abba295be4af9e74ca3ec241ebd7,Ow9LZC3YZs9O6OSDa1-HGw,Beacher Cafe,2162 Queen Street E,265.0149992124703,-79.2913,43.67206,Breakfast & Brunch,7.0,2,29,0,1,0,0,0,0,0,0,0,1,0,0,0
05d7abba295be4af9e74ca3ec241ebd7,np8wj1g3cgCoIcJ26zozpA,Green Eggplant Restaurant,2022 Queen Street E,349.2533331432657,-79.29875,43.67052,"Mediterranean, Canadian (New)",8.0,2,29,0,1,0,0,0,0,0,0,0,0,1,0,0
05d7abba295be4af9e74ca3ec241ebd7,BdbdSzLfrsroWj5hsCXxDQ,Thai House Cuisine,2213 Queen Sreet E,142.98542483026532,-79.29606,43.67074,Thai,7.0,2,29,0,1,0,0,0,0,0,0,0,1,0,0,0
05d7abba295be4af9e74ca3ec241ebd7,Gk3YpwgiQf47YKkAUZtQTw,Souvlaki Hut,2100 Queen Street E,121.50436473835276,-79.295965,43.671055,Greek,8.0,2,29,0,1,0,0,0,0,0,0,0,0,1,0,0
05d7abba295be4af9e74ca3ec241ebd7,9LimxWLM3URfrCcQsUJ3yg,Breakwall BBQ,1910 Queen Street E,834.288539730037,-79.304498,43.6693242,"Barbeque, Sports Bars, American",8.0,2,29,0,1,0,0,0,0,0,0,0,0,1,0,0
93727b82ed700768aa9695d49140f6b3,fobkeIEzbJtej-udG4UoRg,Madrina Bar y Tapas,2 Trinity Street,1004.1159891682832,-79.35967868465576,43.64971833602106,Tapas Bars,8.0,2,30,0,1,0,0,0,0,0,0,0,0,1,0,0
93727b82ed700768aa9695d49140f6b3,QX5Y_BIxlMG3B3vV1zx1Gw,Cherry Street BBQ,275 Cherry Street,457.5038793824921,-79.35229,43.6456,Barbeque,8.0,2,30,0,1,0,0,0,0,0,0,0,0,1,0,0
93727b82ed700768aa9695d49140f6b3,Zq9WPT7ZAOYlQ0GV8OQWKQ,Cluck Clucks,222 The Esplanade,1324.8806784331005,-79.3660896960711,43.6497687124273,"Chicken Shop, Comfort Food, Sandwiches",9.0,2,30,0,1,0,0,0,0,0,0,0,0,0,1,0
93727b82ed700768aa9695d49140f6b3,UxWH8zRYIBgs6Q2oykvRdw,Cluny Bistro & Boulangerie,35 Tank House Lane,1039.32398189988,-79.3578962,43.6505879,"French, Wine Bars, Cocktail Bars",7.0,3,30,0,0,1,0,0,0,0,0,0,1,0,0,0
93727b82ed700768aa9695d49140f6b3,zIfCWjZ0RAe8YVMSPZdOdA,Pure Spirits,17 Tank House Lane,1042.157796660484,-79.358722,43.650404,"Seafood, Bars",6.0,3,30,0,0,1,0,0,0,0,0,1,0,0,0,0
93727b82ed700768aa9695d49140f6b3,riNGNShPNa9-fN4c84Yz4w,Cabana Pool Bar,11 Polson Street,166.97390712389557,-79.354573074415,43.6402305300529,"Venues & Event Spaces, Lounges",5.0,3,30,0,0,1,0,0,0,0,1,0,0,0,0,0
93727b82ed700768aa9695d49140f6b3,a8pmtlVKf7NiSLI-4KejIw,El Catrin Destileria,18 Tank House Lane,1042.2437227888818,-79.35883,43.65052,Mexican,7.0,3,30,0,0,1,0,0,0,0,0,0,1,0,0,0
93727b82ed700768aa9695d49140f6b3,yH0sMc0CE_k1aWbumt04xA,Soma Chocolatemaker,32 Tank House Lane,1056.3991503284674,-79.3582657,43.6506614,"Chocolatiers & Shops, Ice Cream & Frozen Yogurt, Desserts",9.0,3,30,0,0,1,0,0,0,0,0,0,0,0,1,0
4458cd04d9fb8c770ac4bae9d9db2d63,kiGc-yk1z1JgqTq7t6CcwA,Zuki Japanese Restaurant,2030 Eglinton Avenue W,576.3346292167379,-79.4561386,43.6946297,"Japanese, Sushi Bars",8.0,2,31,0,1,0,0,0,0,0,0,0,0,1,0,0
4458cd04d9fb8c770ac4bae9d9db2d63,toQVcwfnNn0iNqM1p0IjMw,Babos Donerpoint,2216 Eglinton Avenue W,104.94942574972602,-79.46182,43.6933,"Greek, Turkish",8.0,1,31,1,0,0,0,0,0,0,0,0,0,1,0,0
4458cd04d9fb8c770ac4bae9d9db2d63,NByukG_L5phed8QMOVxfgA,Z Bar & Grille,2527 Eglington Avenue West,712.5678520394001,-79.47131,43.6908,"Caribbean, Bars",8.0,2,31,0,1,0,0,0,0,0,0,0,0,1,0,0
4458cd04d9fb8c770ac4bae9d9db2d63,UQeoOycNE0w2Uu8zRXd3Tg,Commisso Bros & Racco Italian Bakery,8 Kincort St,711.280319202311,-79.46886,43.69863,Bakeries,7.0,1,31,1,0,0,0,0,0,0,0,0,1,0,0,0
4458cd04d9fb8c770ac4bae9d9db2d63,rK_U5_M4wF7pCqrADwwtlw,Delicious Empanadas,2438 Dufferin Street,1090.7695259942668,-79.45156,43.69816,Colombian,9.0,2,31,0,1,0,0,0,0,0,0,0,0,0,1,0
8db545a0135f7b92022fbdbbc75af6c4,e41TP5cXZqSrz50xCBJqZw,Insomnia Restaurant & Lounge,563 Bloor Street W,94.90644449466647,-79.411003,43.665961,"Lounges, Breakfast & Brunch, Comfort Food",8.0,2,32,0,1,0,0,0,0,0,0,0,0,1,0,0
8db545a0135f7b92022fbdbbc75af6c4,CN5nuUQod0f8g3oh99qq0w,KINKA IZAKAYA ANNEX,559 Bloor St W,186.44882957092608,-79.410658,43.665157,"Japanese, Tapas/Small Plates, Pubs",8.0,2,32,0,1,0,0,0,0,0,0,0,0,1,0,0
8db545a0135f7b92022fbdbbc75af6c4,F_oPMHJrH42R67xp5eKtQA,Yummy Korean Food Restaurant,620 Bloor Street W,293.41309779567894,-79.4140199,43.66469,Korean,8.0,2,32,0,1,0,0,0,0,0,0,0,0,1,0,0
8db545a0135f7b92022fbdbbc75af6c4,RrqcZLX05djKo1GVLMXMDQ,Korean Village Restaurant,628 Bloor Street W,321.8507738004532,-79.41444,43.66461,Korean,8.0,2,32,0,1,0,0,0,0,0,0,0,0,1,0,0
8db545a0135f7b92022fbdbbc75af6c4,MMGnDeqMUNQsLC5V6BINjQ,Mr.Tonkatsu,520 Bloor Street W,145.3894732057454,-79.41074,43.66541,Japanese,8.0,2,32,0,1,0,0,0,0,0,0,0,0,1,0,0
8db545a0135f7b92022fbdbbc75af6c4,nktQ_aBRp5CmVOkXR0Mz1g,Arisu Korean BBQ & Sushi,584 Bloor Street W,194.63665246431057,-79.41265,43.6651,"Japanese, Korean, Barbeque",7.0,2,32,0,1,0,0,0,0,0,0,0,1,0,0,0
8db545a0135f7b92022fbdbbc75af6c4,5UgSHCX-V0iXagxUZ9LEXg,Her Chef,599 Bloor Street W,253.44888217029276,-79.41292,43.66457,"Asian Fusion, Poke, Chicken Shop",9.0,2,32,0,1,0,0,0,0,0,0,0,0,0,1,0
8db545a0135f7b92022fbdbbc75af6c4,eKznX8VTfcQrjCqXpeobiw,Rasa,196 Robert Street,755.4512316259702,-79.4039682,43.6627752,"Canadian (New), Tapas/Small Plates",9.0,2,32,0,1,0,0,0,0,0,0,0,0,0,1,0
8db545a0135f7b92022fbdbbc75af6c4,oZP0Ynj-yHUxJUmY7-HaUA,Rustle & Still Café,605 Bloor Street W,264.8868190487968,-79.41304,43.66457,"Coffee & Tea, Vietnamese",9.0,1,32,1,0,0,0,0,0,0,0,0,0,0,1,0
8db545a0135f7b92022fbdbbc75af6c4,F2PcvHf7G8QwCDSJ1-7fFQ,Paupers Pub,539 Bloor Street W,212.39538879089665,-79.41004,43.66515,"Pubs, Burgers, Sandwiches",6.0,2,32,0,1,0,0,0,0,0,0,1,0,0,0,0
940aa4a33247df5ea989d1b07e125e5d,_cjPEH9wXhKS-HQe_U3M4Q,Le Sélect Bistro,432 Wellington Street W,1010.5007177378826,-79.39685231028895,43.643905577145816,"French, Coffee & Tea, Breakfast & Brunch",8.0,3,33,0,0,1,0,0,0,0,0,0,0,1,0,0
940aa4a33247df5ea989d1b07e125e5d,37kk0IW6jL7ZlxZF6k2QBg,Edulis,169 Niagara Street,958.6627047178722,-79.4065795,43.64195961518665,"Spanish, French",8.0,4,33,0,0,0,1,0,0,0,0,0,0,1,0,0
940aa4a33247df5ea989d1b07e125e5d,AVwE6GQmlCTAjaDbli4IKg,Iruka Sushi,550 Queens Quay W,313.69140318063046,-79.396640733727,43.6369364641686,Japanese,7.0,2,33,0,1,0,0,0,0,0,0,0,1,0,0,0
940aa4a33247df5ea989d1b07e125e5d,1pXyaPUXMqZyxW1Ew7BLUg,Guirei Japanese Restaurant,600 Queens Quay W,247.0342660159542,-79.3973546,43.6366084,"Japanese, Sushi Bars",7.0,2,33,0,1,0,0,0,0,0,0,0,1,0,0,0
940aa4a33247df5ea989d1b07e125e5d,mG71gQ5HWl7ut9OCN6NJKA,360 Restaurant,290 Bremner Blvd,1119.080990924143,-79.3898128,43.6422401,Canadian (New),7.0,4,33,0,0,0,1,0,0,0,0,0,1,0,0,0
940aa4a33247df5ea989d1b07e125e5d,jedpMIkZkpVPTKxVwOqvtg,Sansotei Ramen,115 Fort York Boulevard,462.3211426648921,-79.3982599,43.63905,Ramen,8.0,2,33,0,1,0,0,0,0,0,0,0,0,1,0,0
940aa4a33247df5ea989d1b07e125e5d,QR2-0qgjHZVVnPY6Txlgtg,Touti Gelati and Cafe,550 Queens Quay W,308.95343836929453,-79.39616,43.6371899,"Desserts, Coffee & Tea, Juice Bars & Smoothies",8.0,2,33,0,1,0,0,0,0,0,0,0,0,1,0,0
6e21dd07c568ac71711f1358b58c7f3c,6mUidMn4-TEj3_-LD3lsSQ,St. Matthew's BBQ Chicken,527 Rogers Rd,962.759620243234,-79.46899,43.68209,"Portuguese, Barbeque",9.0,2,34,0,1,0,0,0,0,0,0,0,0,0,1,0
6e21dd07c568ac71711f1358b58c7f3c,kiGc-yk1z1JgqTq7t6CcwA,Zuki Japanese Restaurant,2030 Eglinton Avenue W,808.4228248121339,-79.4561386,43.6946297,"Japanese, Sushi Bars",8.0,2,34,0,1,0,0,0,0,0,0,0,0,1,0,0
6e21dd07c568ac71711f1358b58c7f3c,ux0mn7v7fd6cTO-v4b3wig,Kokyo Japanese Restaurant,572 Rogers Road,1077.5953317408075,-79.47113,43.6824,Japanese,7.0,2,34,0,1,0,0,0,0,0,0,0,1,0,0,0
6e21dd07c568ac71711f1358b58c7f3c,NByukG_L5phed8QMOVxfgA,Z Bar & Grille,2527 Eglington Avenue West,940.9406153028086,-79.47131,43.6908,"Caribbean, Bars",8.0,2,34,0,1,0,0,0,0,0,0,0,0,1,0,0
6e21dd07c568ac71711f1358b58c7f3c,toQVcwfnNn0iNqM1p0IjMw,Babos Donerpoint,2216 Eglinton Avenue W,600.5368821417993,-79.46182,43.6933,"Greek, Turkish",8.0,1,34,1,0,0,0,0,0,0,0,0,0,1,0,0
a2e02c044b1d003adb0993f8da78ee58,eKznX8VTfcQrjCqXpeobiw,Rasa,196 Robert Street,486.8645804069541,-79.4039682,43.6627752,"Canadian (New), Tapas/Small Plates",9.0,2,35,0,1,0,0,0,0,0,0,0,0,0,1,0
a2e02c044b1d003adb0993f8da78ee58,47wBHgBwQ8_70sjmXow_1g,Her Father's Cider Bar & Kitchen,119 Harbord Street,545.4318198759458,-79.40453,43.66232,"Gastropubs, Bars, Canadian (New)",9.0,2,35,0,1,0,0,0,0,0,0,0,0,0,1,0
a2e02c044b1d003adb0993f8da78ee58,q9_gLvTNf11etVxbH7JY0Q,Yasu,81 Harbord Street,427.9840613728933,-79.40314,43.66269,"Japanese, Sushi Bars",9.0,4,35,0,0,0,1,0,0,0,0,0,0,0,1,0
a2e02c044b1d003adb0993f8da78ee58,crstB-H5rOfbXhV8pX0e6g,Ramen Isshin,421 College Street,1089.2250173630448,-79.40689,43.65634,Ramen,9.0,2,35,0,1,0,0,0,0,0,0,0,0,0,1,0
a2e02c044b1d003adb0993f8da78ee58,qR4EIktJfQKc4rnKgBzvtw,Gyubee Japanese Grill - Bloor,335 Bloor Street W,431.9671995493518,-79.40047,43.66716,"Barbeque, Japanese",8.0,3,35,0,0,1,0,0,0,0,0,0,0,1,0,0
a2e02c044b1d003adb0993f8da78ee58,TqMTY6xTHThm0C7J1pJ7Aw,Pig Out BBQ,650 Spadina Avenue,367.4653790487567,-79.40253,43.66317,"Barbeque, American, Sandwiches",8.0,2,35,0,1,0,0,0,0,0,0,0,0,1,0,0
a2e02c044b1d003adb0993f8da78ee58,41o1FUbCYKJv2djtnlkzlg,Bar Raval,505 College Street,1297.7750438695289,-79.4099433,43.6558432,"Spanish, Tapas/Small Plates, Cocktail Bars",8.0,3,35,0,0,1,0,0,0,0,0,0,0,1,0,0
a2e02c044b1d003adb0993f8da78ee58,VA95qAV2PRH9gtTi2Vfv4Q,Trattoria Nervosa,75 Yorkville Avenue,985.5034551543172,-79.39104,43.67101,"Italian, Pizza, Salad",8.0,2,35,0,1,0,0,0,0,0,0,0,0,1,0,0
a2e02c044b1d003adb0993f8da78ee58,1PJpo48hSChCbriXEHGSjw,Opus Restaurant,37 Prince Arthur Avenue,611.4981084163488,-79.3972299,43.66921,"Wine Bars, Modern European",8.0,4,35,0,0,0,1,0,0,0,0,0,0,1,0,0
a2e02c044b1d003adb0993f8da78ee58,b7wUWVV01xaa7E0FUNMDiw,DaiLo,503 College Street,1293.8586195050907,-79.4098,43.65574,"Chinese, Asian Fusion",8.0,3,35,0,0,1,0,0,0,0,0,0,0,1,0,0
56275b952451bea6cdc0a9e666ea363f,snw9iNNLpFYZeHotW00uVA,Lee,497 Richmond Street W,158.99229626821193,-79.3993497,43.64719115126137,Asian Fusion,8.0,3,36,0,0,1,0,0,0,0,0,0,0,1,0,0
56275b952451bea6cdc0a9e666ea363f,uPa5hrWmHm0n1l4MSyVMGQ,Aloette,163 Spadina Avenue,194.9371881287049,-79.395963,43.64855831176563,"French, Bistros, Diners",9.0,3,36,0,0,1,0,0,0,0,0,0,0,0,1,0
56275b952451bea6cdc0a9e666ea363f,EEIz44ewHhOKmfTloAK13g,Alo Restaurant,163 Spadina Avenue,194.52598152432483,-79.39584,43.64851,"Bars, French",9.0,4,36,0,0,0,1,0,0,0,0,0,0,0,1,0
56275b952451bea6cdc0a9e666ea363f,hDy-uY7Vy_TZdGBzw59lhA,Saku Sushi,478 Queen Street W,157.42710202293662,-79.4003,43.6482,"Sushi Bars, Japanese",8.0,2,36,0,1,0,0,0,0,0,0,0,0,1,0,0
56275b952451bea6cdc0a9e666ea363f,N93EYZy9R0sdlEvubu94ig,Banh Mi Boys,392 Queen Street W,120.08253044787118,-79.39695,43.64884,"Vietnamese, Sandwiches",9.0,1,36,1,0,0,0,0,0,0,0,0,0,0,1,0
56275b952451bea6cdc0a9e666ea363f,2cKAew-9iLS-mo-TtOgFiA,Raku,456 Queen St W,89.18891570047454,-79.39944,43.64831,"Japanese, Noodles",8.0,2,36,0,1,0,0,0,0,0,0,0,0,1,0,0
56275b952451bea6cdc0a9e666ea363f,B70iTJjcPkuYn8ouUewWgw,Gusto 101,101 Portland Street,412.28210073615656,-79.400309337027,43.645002131066,Italian,8.0,2,36,0,1,0,0,0,0,0,0,0,0,1,0,0
56275b952451bea6cdc0a9e666ea363f,dd3GZs6zW2t7BM0cbxAzvg,La Palette,492 Queen Street W,217.9384387123257,-79.40098,43.64797,"French, Desserts, Bars",8.0,3,36,0,0,1,0,0,0,0,0,0,0,1,0,0
56275b952451bea6cdc0a9e666ea363f,sXg2NCfiCqK_X_4R5NK_jQ,BarChef,472 Queen Street W,145.9802459356936,-79.4001694,43.6482201,"Lounges, Cocktail Bars",9.0,3,36,0,0,1,0,0,0,0,0,0,0,0,1,0
56275b952451bea6cdc0a9e666ea363f,h8vVxwP6FnlkRDONKBHT-w,Chubby's Jamaican Kitchen,104 Portland Street,392.157518540908,-79.40066,43.64532,Caribbean,8.0,2,36,0,1,0,0,0,0,0,0,0,0,1,0,0
479d21ebdac47eb8e30a209268e0bebe,W5d8iNog90R-qw43m5dGwg,Café Polonez,195 Roncesvalles Avenue,649.3608613106642,-79.44831,43.64514,Polish,9.0,2,37,0,1,0,0,0,0,0,0,0,0,0,1,0
479d21ebdac47eb8e30a209268e0bebe,wSojc-y-d7MWiGWdy8deCg,Barque Smokehouse,299 Roncesvalles Avenue,644.7970401769555,-79.4496592,43.6480097,"Barbeque, Smokehouse",8.0,2,37,0,1,0,0,0,0,0,0,0,0,1,0,0
479d21ebdac47eb8e30a209268e0bebe,VhQXJteVrG3L-wq8HlYFqw,The Ace,231A Roncesvalles Avenue,625.8629315564663,-79.448823,43.646122,"Comfort Food, Breakfast & Brunch, Canadian (New)",8.0,2,37,0,1,0,0,0,0,0,0,0,0,1,0,0
479d21ebdac47eb8e30a209268e0bebe,9xdVIIzHp12Zrox5aFaaHA,Pizzeria Defina,321 Roncesvalles Ave,683.4122260979954,-79.44955,43.64875,"Pizza, Italian",8.0,2,37,0,1,0,0,0,0,0,0,0,0,1,0,0
479d21ebdac47eb8e30a209268e0bebe,M8S7poDhCIzqQx1--GB-ww,La Cubana,392 Roncesvalles Avenue,790.6759937036827,-79.45106,43.65087,Cuban,7.0,2,37,0,1,0,0,0,0,0,0,0,1,0,0,0
479d21ebdac47eb8e30a209268e0bebe,nIwtGMkMyx0elLxVFs1D6A,Aztec's Mine,1986 Bloor Street W,1328.0143250745523,-79.4684988,43.65302,Mexican,8.0,2,37,0,1,0,0,0,0,0,0,0,0,1,0,0
2383fa5f5c21140fe68f8b6dda91a1b1,B70iTJjcPkuYn8ouUewWgw,Gusto 101,101 Portland Street,126.03904936626506,-79.400309337027,43.645002131066,Italian,8.0,2,38,0,1,0,0,0,0,0,0,0,0,1,0,0
2383fa5f5c21140fe68f8b6dda91a1b1,h8vVxwP6FnlkRDONKBHT-w,Chubby's Jamaican Kitchen,104 Portland Street,116.70779680075556,-79.40066,43.64532,Caribbean,8.0,2,38,0,1,0,0,0,0,0,0,0,0,1,0,0
2383fa5f5c21140fe68f8b6dda91a1b1,snw9iNNLpFYZeHotW00uVA,Lee,497 Richmond Street W,132.4323457892758,-79.3993497,43.64719115126137,Asian Fusion,8.0,3,38,0,0,1,0,0,0,0,0,0,0,1,0,0
2383fa5f5c21140fe68f8b6dda91a1b1,ZumOnWbstgsIE6bJlxw0_Q,Jacobs & Co. Steakhouse,12 Brant Street,144.19232769954775,-79.3980279011192,43.64539876116,Steakhouses,9.0,4,38,0,0,0,1,0,0,0,0,0,0,0,1,0
2383fa5f5c21140fe68f8b6dda91a1b1,A7waf6G3cvnLfAqKeLL8DA,Buca,604 King Street W,178.91694080832158,-79.40045,43.64462,Italian,8.0,3,38,0,0,1,0,0,0,0,0,0,0,1,0,0
2383fa5f5c21140fe68f8b6dda91a1b1,h_4dPV9M9aYaBliH1Eoeeg,Wvrst,609 King Street W,232.87749471101404,-79.401014855291,43.64418555054,"German, Beer Bar",8.0,2,38,0,1,0,0,0,0,0,0,0,0,1,0,0
2383fa5f5c21140fe68f8b6dda91a1b1,rl137V_5Hx0cJAV4beVdhA,Campechano Taquería,504 Adelaide Street W,96.57849848990917,-79.40077,43.64586,Mexican,8.0,2,38,0,1,0,0,0,0,0,0,0,0,1,0,0
2383fa5f5c21140fe68f8b6dda91a1b1,_Ar0rDN_xp9chIrCfRQ6vw,Ruby Soho,587 King St W,207.9665968526191,-79.40015,43.64423,"American, Pubs",8.0,2,38,0,1,0,0,0,0,0,0,0,0,1,0,0
2383fa5f5c21140fe68f8b6dda91a1b1,hDy-uY7Vy_TZdGBzw59lhA,Saku Sushi,478 Queen Street W,241.65396742637623,-79.4003,43.6482,"Sushi Bars, Japanese",8.0,2,38,0,1,0,0,0,0,0,0,0,0,1,0,0
2383fa5f5c21140fe68f8b6dda91a1b1,VRwT0pscR5vESCrAnUpNwQ,Wilbur Mexicana,552 King Street W,156.58585756186727,-79.39866,43.64494,Mexican,8.0,2,38,0,1,0,0,0,0,0,0,0,0,1,0,0
2037c7d47c8b7babcd2c4a058a66a6c8,crstB-H5rOfbXhV8pX0e6g,Ramen Isshin,421 College Street,135.8298983689786,-79.40689,43.65634,Ramen,9.0,2,39,0,1,0,0,0,0,0,0,0,0,0,1,0
2037c7d47c8b7babcd2c4a058a66a6c8,G12kABl0tfK4ylgj8XF06w,Voodoo Child,388 College Street,7.799635347611311,-79.40552,43.65714,"Coffee & Tea, Breakfast & Brunch, Cocktail Bars",8.0,2,39,0,1,0,0,0,0,0,0,0,0,1,0,0
2037c7d47c8b7babcd2c4a058a66a6c8,41o1FUbCYKJv2djtnlkzlg,Bar Raval,505 College Street,376.32269818728577,-79.4099433,43.6558432,"Spanish, Tapas/Small Plates, Cocktail Bars",8.0,3,39,0,0,1,0,0,0,0,0,0,0,1,0,0
2037c7d47c8b7babcd2c4a058a66a6c8,Ibp4hEKSE8JaX9OvfEiFqg,Otto's Berlin Döner,256 Augusta Avenue,232.5878632205876,-79.4029066,43.6563397,"German, Bars, Sandwiches",8.0,2,39,0,1,0,0,0,0,0,0,0,0,1,0,0
2037c7d47c8b7babcd2c4a058a66a6c8,b7wUWVV01xaa7E0FUNMDiw,DaiLo,503 College Street,371.6928801602315,-79.4098,43.65574,"Chinese, Asian Fusion",8.0,3,39,0,0,1,0,0,0,0,0,0,0,1,0,0
2037c7d47c8b7babcd2c4a058a66a6c8,rxA9c0_XObabVL1WCTA4FA,Sneaky Dee's,431 College Street,175.87864645728183,-79.4074,43.6562399,"Tex-Mex, Bars, Breakfast & Brunch",7.0,2,39,0,1,0,0,0,0,0,0,0,1,0,0,0
2037c7d47c8b7babcd2c4a058a66a6c8,t5wRrTWlUNZkhrHGByqI-w,Sheherzade Persian Grill And Dizi,422 College St W,117.913275368225,-79.40698,43.65689,Persian/Iranian,8.0,2,39,0,1,0,0,0,0,0,0,0,0,1,0,0
2037c7d47c8b7babcd2c4a058a66a6c8,zrYpLdnGKA_EmOhgRCy_vg,The Pomegranate Restaurant,420 College Street,112.4870576888155,-79.40694,43.6569,"Middle Eastern, Persian/Iranian",8.0,2,39,0,1,0,0,0,0,0,0,0,0,1,0,0
cc1432c52b1e87a738180d369ed1136b,QF4tRJ-ot7dYwebAsn0seg,Mengrai Thai,82 Ontario Street,173.22696968623188,-79.366917,43.6541,"Thai, Noodles",8.0,2,40,0,1,0,0,0,0,0,0,0,0,1,0,0
cc1432c52b1e87a738180d369ed1136b,fobkeIEzbJtej-udG4UoRg,Madrina Bar y Tapas,2 Trinity Street,590.5610499444516,-79.35967868465576,43.64971833602106,Tapas Bars,8.0,2,40,0,1,0,0,0,0,0,0,0,0,1,0,0
cc1432c52b1e87a738180d369ed1136b,Sk0Ycurq7D083Qs8x65b_Q,George Restaurant,111 Queen Street E,748.720901111616,-79.37432933100068,43.65337263523713,"Canadian (New), Cocktail Bars",9.0,4,40,0,0,0,1,0,0,0,0,0,0,0,1,0
cc1432c52b1e87a738180d369ed1136b,Zq9WPT7ZAOYlQ0GV8OQWKQ,Cluck Clucks,222 The Esplanade,408.3416846713864,-79.3660896960711,43.6497687124273,"Chicken Shop, Comfort Food, Sandwiches",9.0,2,40,0,1,0,0,0,0,0,0,0,0,0,1,0
cc1432c52b1e87a738180d369ed1136b,fGdUxfeEWp9pn2sAa9rv2w,Roselle,362 King Street E,240.33755003654497,-79.3620478,43.65355349902108,"Bakeries, Desserts, Patisserie/Cake Shop",9.0,2,40,0,1,0,0,0,0,0,0,0,0,0,1,0
cc1432c52b1e87a738180d369ed1136b,-smUKwiwkWmz1qWUcgqYsg,Cafe Oro Di Napoli,75 Jarvis Street,613.0614270828975,-79.3721591972351,43.6514257145518,"Pizza, Italian",9.0,2,40,0,1,0,0,0,0,0,0,0,0,0,1,0
cc1432c52b1e87a738180d369ed1136b,huNs9XKN4_ig4mVL04u9yA,FAMO Sandwiches,122 Sherbourne Street,365.2810413664474,-79.36956,43.65404,Sandwiches,9.0,2,40,0,1,0,0,0,0,0,0,0,0,0,1,0
cc1432c52b1e87a738180d369ed1136b,fQwB9Z98YEhkJit7c3z51A,The Carbon Bar,99 Queen Street East,790.7788428535681,-79.374829,43.653088,"Barbeque, Bars, American",8.0,3,40,0,0,1,0,0,0,0,0,0,0,1,0,0
71debce521f35fd4e280e8ee1e2dd8cc,yQS7bWaBhhGZJ1zeXku4yA,Imm Thai Kitchen,651 College Street,192.3023866489309,-79.41598,43.65484,"Thai, Noodles",9.0,2,41,0,1,0,0,0,0,0,0,0,0,0,1,0
71debce521f35fd4e280e8ee1e2dd8cc,41o1FUbCYKJv2djtnlkzlg,Bar Raval,505 College Street,383.0191508764773,-79.4099433,43.6558432,"Spanish, Tapas/Small Plates, Cocktail Bars",8.0,3,41,0,0,1,0,0,0,0,0,0,0,1,0,0
71debce521f35fd4e280e8ee1e2dd8cc,b7wUWVV01xaa7E0FUNMDiw,DaiLo,503 College Street,387.625762816448,-79.4098,43.65574,"Chinese, Asian Fusion",8.0,3,41,0,0,1,0,0,0,0,0,0,0,1,0,0
71debce521f35fd4e280e8ee1e2dd8cc,g6GXqg-QdDiQGLYMVqNOUw,Hapa Toronto,602 College Street,116.17977151569428,-79.41423,43.65533,Japanese,7.0,3,41,0,0,1,0,0,0,0,0,0,1,0,0,0
71debce521f35fd4e280e8ee1e2dd8cc,bo4loBeLwkQqZ7HGrgxXRQ,Taverniti,591 College Street,157.74260433515025,-79.41348,43.65511,"Italian, Pizza",8.0,2,41,0,1,0,0,0,0,0,0,0,0,1,0,0
71debce521f35fd4e280e8ee1e2dd8cc,ukcwpK5MSuZgrCmQRz6Qmw,Ryukyu Shinmen Tondou Ramen,596 College Street,119.42038705781906,-79.414147,43.655289,Ramen,8.0,2,41,0,1,0,0,0,0,0,0,0,0,1,0,0
71debce521f35fd4e280e8ee1e2dd8cc,z_twvOBwyGNbuxJhsiJofg,PG Clucks,610 College Street,120.49108131920931,-79.41456,43.65532,Sandwiches,8.0,1,41,1,0,0,0,0,0,0,0,0,0,1,0,0
71debce521f35fd4e280e8ee1e2dd8cc,_K03oh0gftzge5y-dku-6A,La Forchetta,613 College Street,154.77760221622813,-79.41453,43.65493,Italian,8.0,3,41,0,0,1,0,0,0,0,0,0,0,1,0,0
71debce521f35fd4e280e8ee1e2dd8cc,5AC2yQzEe3iRGrsJ0at-8g,Reverie at The Park,569 College Street,196.61146932520697,-79.4127852411055,43.655164300000045,"Cocktail Bars, Canadian (New)",9.0,3,41,0,0,1,0,0,0,0,0,0,0,0,1,0
71debce521f35fd4e280e8ee1e2dd8cc,crstB-H5rOfbXhV8pX0e6g,Ramen Isshin,421 College Street,625.5071000391694,-79.40689,43.65634,Ramen,9.0,2,41,0,1,0,0,0,0,0,0,0,0,0,1,0
37b4b6822fe05d33d64c2a174a23a4ee,_T7f2wUgNlJqxsR-cR89SQ,Scaramouche Restaurant Pasta Bar & Grill,1 Benvenuto Place,689.1490770829415,-79.39991,43.68155,"French, Bars",9.0,4,42,0,0,0,1,0,0,0,0,0,0,0,1,0
37b4b6822fe05d33d64c2a174a23a4ee,Cra7jGcAh_McPTHpm9YlTQ,Umami Poke,1252 Yonge Street,167.1026849249543,-79.39229,43.68318,"Hawaiian, Seafood, Poke",9.0,2,42,0,1,0,0,0,0,0,0,0,0,0,1,0
37b4b6822fe05d33d64c2a174a23a4ee,pw167x7bLW5t6N2WHjroZA,Barnsteiner's,1 Balmoral Avenue,115.55608044878744,-79.3933799,43.68554,Modern European,7.0,3,42,0,0,1,0,0,0,0,0,0,1,0,0,0
37b4b6822fe05d33d64c2a174a23a4ee,C_g3n0TGN9IVtwED4WiavA,Sunny Morning,1392 Yonge Street,229.7139696098132,-79.3935545,43.6865257,Breakfast & Brunch,8.0,2,42,0,1,0,0,0,0,0,0,0,0,1,0,0
37b4b6822fe05d33d64c2a174a23a4ee,KtSEqZbGV1WHgOgtSMEZFQ,Capocaccia Trattoria,1366 Yonge Street,151.97062738188387,-79.393189,43.6858784,"Pizza, Italian",7.0,2,42,0,1,0,0,0,0,0,0,0,1,0,0,0
37b4b6822fe05d33d64c2a174a23a4ee,GO3d6vQBfByJN93Hco4dOQ,Megumi Mazesoba,46 Saint Clair Avenue E,458.972980889886,-79.39196,43.68876,Japanese,9.0,2,42,0,1,0,0,0,0,0,0,0,0,0,1,0
37b4b6822fe05d33d64c2a174a23a4ee,O_UC_izJXcAmkm6HlEyGSA,Playa Cabana,111 Dupont Street,1191.4376482494674,-79.4011840224266,43.6759577692695,"Mexican, Bars",8.0,2,42,0,1,0,0,0,0,0,0,0,0,1,0,0
37b4b6822fe05d33d64c2a174a23a4ee,MOB5oCEKCw3S76SsiuQjqA,Mary Be Kitchen,21B St. Clair Avenue W,390.4180741702971,-79.3949,43.68769,Canadian (New),9.0,2,42,0,1,0,0,0,0,0,0,0,0,0,1,0
37b4b6822fe05d33d64c2a174a23a4ee,0cpLF0LFQHHRFNlL0iy_Aw,Union Social Eatery,21 Saint Clair Avenue W,410.8871948249232,-79.3950692564249,43.687794516424,"American, Canadian (New)",8.0,2,42,0,1,0,0,0,0,0,0,0,0,1,0,0
37b4b6822fe05d33d64c2a174a23a4ee,67Pa_CtXthgJzXfY8JzLDQ,Holy Chuck,1450 Yonge Street,348.2051010549236,-79.39406,43.68753,Burgers,7.0,2,42,0,1,0,0,0,0,0,0,0,1,0,0,0
eb20e0b8c7c8bf1fc4157a3b715e2837,nIwtGMkMyx0elLxVFs1D6A,Aztec's Mine,1986 Bloor Street W,281.5628962368375,-79.4684988,43.65302,Mexican,8.0,2,43,0,1,0,0,0,0,0,0,0,0,1,0,0
eb20e0b8c7c8bf1fc4157a3b715e2837,HOGdBz2w9VZbw2yyM-WA3g,The Mugshot Tavern,1729 Bloor Street W,478.5773018440416,-79.45957,43.6546,Bars,8.0,2,43,0,1,0,0,0,0,0,0,0,0,1,0,0
eb20e0b8c7c8bf1fc4157a3b715e2837,ECOnq58qoeqwPuS59P1W-A,Hannah's Cafe and Bakery,1822 Bloor Street W,220.7404480843292,-79.4625825,43.6542601,"Coffee & Tea, Bakeries, Breakfast & Brunch",7.0,1,43,1,0,0,0,0,0,0,0,0,1,0,0,0
eb20e0b8c7c8bf1fc4157a3b715e2837,FwcIo83tMqzU6COsUHBGAg,Whelan's Gate Gastropub,1663 Bloor Street W,734.3755043824455,-79.4564438,43.6552887,"Irish Pub, Gastropubs, Whiskey Bars",9.0,2,43,0,1,0,0,0,0,0,0,0,0,0,1,0
eb20e0b8c7c8bf1fc4157a3b715e2837,8UiPh7jaIqT_Dm8Qt_9frA,Annette Food Market,240 Annette Street,1015.18926377268,-79.471127986908,43.6625426477784,"Italian, Pizza, Tapas Bars",8.0,3,43,0,0,1,0,0,0,0,0,0,0,1,0,0
eb20e0b8c7c8bf1fc4157a3b715e2837,djKTruHtS4n_vlfOknxjRw,Queen's Pasta Café,2263 Bloor Street W,1082.386157052928,-79.4779248,43.65057609999999,Italian,7.0,2,43,0,1,0,0,0,0,0,0,0,1,0,0,0
eb20e0b8c7c8bf1fc4157a3b715e2837,Aj3GKsNMzIpxCaqLruSoFw,MacKenzies High Park,1982 Bloor Street W,287.24493219413966,-79.4684242,43.6528481,Pubs,6.0,2,43,0,1,0,0,0,0,0,0,1,0,0,0,0
eb20e0b8c7c8bf1fc4157a3b715e2837,xvp1GmKW-LAllqL5IYw2ew,Outpost Coffee Roasters,1578 Bloor Street W,943.2283782095244,-79.4540566425629,43.6561076767417,Coffee Roasteries,9.0,2,43,0,1,0,0,0,0,0,0,0,0,0,1,0
d00c14c6cffc4b0fb30239ec2410232c,wNXw53wmePcf_V3rF18LUg,Grazie Ristorante,2373 Yonge Street,479.38056728794953,-79.39852,43.70934,Italian,8.0,2,44,0,1,0,0,0,0,0,0,0,0,1,0,0
d00c14c6cffc4b0fb30239ec2410232c,b9Ctxco-1HyjE55W_28MYA,Himalayan Coffee House,2552 Yonge Street,16.817594381095656,-79.4,43.71336,Coffee & Tea,9.0,1,44,1,0,0,0,0,0,0,0,0,0,0,1,0
d00c14c6cffc4b0fb30239ec2410232c,0mGYvAFGxH9bGRqYHxS0BQ,Touhenboku Ramen Restaurant,2459 Yonge Street,244.68365062834027,-79.3993231,43.7114087,"Ramen, Noodles",7.0,2,44,0,1,0,0,0,0,0,0,0,1,0,0,0
d00c14c6cffc4b0fb30239ec2410232c,WNnkyVvBfY1vTqiqSufZQA,Cibo Wine Bar,2472 Yonge Street,239.0739755378158,-79.39968,43.71139,"Wine Bars, Italian",6.0,3,44,0,0,1,0,0,0,0,0,1,0,0,0,0
d00c14c6cffc4b0fb30239ec2410232c,iT053N_wdX7Ryr5lLCtLfg,Sorn Thai Restaurant,2550 Yonge Street,21.148792769116827,-79.4,43.71333,"Thai, Salad, Noodles",7.0,2,44,0,1,0,0,0,0,0,0,0,1,0,0,0
d00c14c6cffc4b0fb30239ec2410232c,DfCuDI8b6rZ4nXl9Zg-eSw,De Mello Coffee,2489 Yonge Street,202.10163490483768,-79.3991999,43.71187,"Coffee & Tea, Bakeries, Desserts",8.0,2,44,0,1,0,0,0,0,0,0,0,0,1,0,0
07c0bbd2b5c108bacb3a32250af2a076,BlWPjh2WuvQSlmYmgFsylg,Azumi Sushi,5516 Lawerence Avenue E,676.850948274689,-79.1385027600793,43.7798991886568,"Japanese, Sushi Bars",8.0,2,45,0,1,0,0,0,0,0,0,0,0,1,0,0
07c0bbd2b5c108bacb3a32250af2a076,-FXxZWNlJ21jQKjc9UlHJg,Port Union Bakery,287 Port Union Rd,1269.3640140763296,-79.139930167984,43.7895037615118,Bakeries,8.0,1,45,1,0,0,0,0,0,0,0,0,0,1,0,0
07c0bbd2b5c108bacb3a32250af2a076,7fckry9Pw2tWXESpGJBtqg,Thai Square,277 Port Union Rd,1272.5298911584334,-79.1396408,43.7890396,Thai,7.0,2,45,0,1,0,0,0,0,0,0,0,1,0,0,0
07c0bbd2b5c108bacb3a32250af2a076,gdJy06dAdQs8qdPUtpOCCw,Mr Beans Coffee Company,5550 Avenue Lawrence E,635.6034735308574,-79.1379319195226,43.7796206895839,Cafes,7.0,1,45,1,0,0,0,0,0,0,0,0,1,0,0,0
026bf7c2104a659ef0392f1c22bc6e17,KR8ErN2eKUlmohxmYDLBBg,Koh Lipe,35 Baldwin Street,279.1266750083108,-79.39347,43.65586,Thai,8.0,2,46,0,1,0,0,0,0,0,0,0,0,1,0,0
026bf7c2104a659ef0392f1c22bc6e17,7qHU_Zh5qEJP3DaaBHqWBg,Saigon Lotus,6 St Andrew Street,343.60607791326794,-79.39928,43.65449,"Vietnamese, Vegan, Vegetarian",9.0,2,46,0,1,0,0,0,0,0,0,0,0,0,1,0
026bf7c2104a659ef0392f1c22bc6e17,_BAewGvIIzrNJtCzViIvSQ,Omai Restaurant,3 Baldwin Street,346.5864680159261,-79.39234,43.6561,Japanese,8.0,2,46,0,1,0,0,0,0,0,0,0,0,1,0,0
026bf7c2104a659ef0392f1c22bc6e17,r_BrIgzYcwo1NAuG9dLbpg,Pai Northern Thai Kitchen,18 Duncan Street,1183.0634423233896,-79.38872,43.64784,Thai,9.0,2,46,0,1,0,0,0,0,0,0,0,0,0,1,0
026bf7c2104a659ef0392f1c22bc6e17,VS0Tm4uB_oZ7zGcANOl8uw,Dzo Viet Eatery,308 Dundas Street W,471.3328610196367,-79.39178,43.65445,Vietnamese,8.0,2,46,0,1,0,0,0,0,0,0,0,0,1,0,0
026bf7c2104a659ef0392f1c22bc6e17,orrhJxM6V1USwccG7MlxmA,Light Cafe,23 Baldwin Street,309.46764741805794,-79.393,43.65594,Cafes,8.0,2,46,0,1,0,0,0,0,0,0,0,0,1,0,0
026bf7c2104a659ef0392f1c22bc6e17,Sr-_q9OcQCmbkjMxZhHgjw,Prenup Pub,191 College Street,255.8850472772881,-79.3947601,43.65868,"Gastropubs, Venues & Event Spaces, American",7.0,2,46,0,1,0,0,0,0,0,0,0,1,0,0,0
179e575503c062aa31a47c6f67d492da,JG9UpsFR6hrqQqsKh_RyaQ,PLANTA Yorkville,1221 Bay Street,107.83656687997428,-79.38945,43.67028,"Vegetarian, Pizza, Sushi Bars",8.0,2,47,0,1,0,0,0,0,0,0,0,0,1,0,0
179e575503c062aa31a47c6f67d492da,VA95qAV2PRH9gtTi2Vfv4Q,Trattoria Nervosa,75 Yorkville Avenue,241.23129416888955,-79.39104,43.67101,"Italian, Pizza, Salad",8.0,2,47,0,1,0,0,0,0,0,0,0,0,1,0,0
179e575503c062aa31a47c6f67d492da,O66Zy8Y13VBm72ZDhS4fIg,Sassafraz,100 Cumberland Street,178.0090836383343,-79.3910686,43.6702957,French,7.0,3,47,0,0,1,0,0,0,0,0,0,1,0,0,0
179e575503c062aa31a47c6f67d492da,7UBOtHkr8dd1glP634Kkjw,Eataly Toronto,55 Bloor Street W,63.83288007613464,-79.3887948598768,43.6696154170451,"Italian, Cheese Shops, Pizza",7.0,2,47,0,1,0,0,0,0,0,0,0,1,0,0,0
179e575503c062aa31a47c6f67d492da,n_-CwlqV8fzEIUPky8Ibtw,The Oxley,121 Yorkville Avenue,331.13269832574355,-79.39304,43.67059,"Pubs, Gastropubs",8.0,2,47,0,1,0,0,0,0,0,0,0,0,1,0,0
179e575503c062aa31a47c6f67d492da,JOoblYsQjFT-47tkt6om0A,7 West Cafe,7 Charles Street W,243.1567627803944,-79.3865257501602,43.6685661933329,"Italian, Breakfast & Brunch, Bars",7.0,2,47,0,1,0,0,0,0,0,0,0,1,0,0,0
179e575503c062aa31a47c6f67d492da,9ET_RUNztevq4_OLAX80Gg,Café Boulud,60 Yorkville Avenue,300.1740083894435,-79.388922,43.6719213,"Cafes, Desserts, French",7.0,4,47,0,0,0,1,0,0,0,0,0,1,0,0,0
179e575503c062aa31a47c6f67d492da,RmRgeuMoSL1RRiT7tokCPg,Mogouyan Hand-Pulled Noodles,760 Yonge Street,226.55689486124052,-79.38671,43.66943,"Noodles, Chinese",8.0,2,47,0,1,0,0,0,0,0,0,0,0,1,0,0
179e575503c062aa31a47c6f67d492da,wcR9Vbwn2EmlSeV7uBUIsA,Hemingway's Restaurant,142 Cumberland St,285.312422621558,-79.39279,43.67015,"Bars, American",7.0,2,47,0,1,0,0,0,0,0,0,0,1,0,0,0
179e575503c062aa31a47c6f67d492da,K3V9JWBZgIMtSICc4kBRUA,Naan & Kabob,691 Yonge Street,272.63364540606943,-79.38606,43.66905,"Afghan, Kebab",8.0,2,47,0,1,0,0,0,0,0,0,0,0,1,0,0
359ce82fbe9d1e9e9962321e62f6066f,eKznX8VTfcQrjCqXpeobiw,Rasa,196 Robert Street,241.3330386245593,-79.4039682,43.6627752,"Canadian (New), Tapas/Small Plates",9.0,2,48,0,1,0,0,0,0,0,0,0,0,0,1,0
359ce82fbe9d1e9e9962321e62f6066f,47wBHgBwQ8_70sjmXow_1g,Her Father's Cider Bar & Kitchen,119 Harbord Street,265.1690920240075,-79.40453,43.66232,"Gastropubs, Bars, Canadian (New)",9.0,2,48,0,1,0,0,0,0,0,0,0,0,0,1,0
359ce82fbe9d1e9e9962321e62f6066f,q9_gLvTNf11etVxbH7JY0Q,Yasu,81 Harbord Street,188.50735405217085,-79.40314,43.66269,"Japanese, Sushi Bars",9.0,4,48,0,0,0,1,0,0,0,0,0,0,0,1,0
359ce82fbe9d1e9e9962321e62f6066f,TpwCjlKsdYjLsvlYhKGt4g,Almond Butterfly Harbord Bakeshop & Cafe,100 Harbord Street,214.247066959712,-79.4033968,43.6629326,"Bakeries, Cafes, Breakfast & Brunch",9.0,1,48,1,0,0,0,0,0,0,0,0,0,0,1,0
359ce82fbe9d1e9e9962321e62f6066f,5dy8OiWJty9AuxBcBzeBZQ,Piano Piano,88 Harbord Street,193.5291271273122,-79.40288046153165,43.66303229653549,"Italian, Pizza, Desserts",7.0,3,48,0,0,1,0,0,0,0,0,0,1,0,0,0
359ce82fbe9d1e9e9962321e62f6066f,TqMTY6xTHThm0C7J1pJ7Aw,Pig Out BBQ,650 Spadina Avenue,193.32946856804412,-79.40253,43.66317,"Barbeque, American, Sandwiches",8.0,2,48,0,1,0,0,0,0,0,0,0,0,1,0,0
359ce82fbe9d1e9e9962321e62f6066f,crstB-H5rOfbXhV8pX0e6g,Ramen Isshin,421 College Street,741.934450566189,-79.40689,43.65634,Ramen,9.0,2,48,0,1,0,0,0,0,0,0,0,0,0,1,0
359ce82fbe9d1e9e9962321e62f6066f,iGEvDk6hsizigmXhDKs2Vg,Seven Lives Tacos y Mariscos,72 Kensington Avenue,800.610468711375,-79.4008299,43.6544903,Mexican,9.0,1,48,1,0,0,0,0,0,0,0,0,0,0,1,0
359ce82fbe9d1e9e9962321e62f6066f,7qHU_Zh5qEJP3DaaBHqWBg,Saigon Lotus,6 St Andrew Street,825.2124309310487,-79.39928,43.65449,"Vietnamese, Vegan, Vegetarian",9.0,2,48,0,1,0,0,0,0,0,0,0,0,0,1,0
4a5734eee8c1c49197ffe9b992dd032a,aLcFhMe6DDJ430zelCpd2A,Khao San Road,11 Charlotte Street,266.78499710333784,-79.39361985450327,43.646412027881496,Thai,8.0,2,49,0,1,0,0,0,0,0,0,0,0,1,0,0
4a5734eee8c1c49197ffe9b992dd032a,K5Q2vkF5UpytV9Q1rB-5Yg,Akira Back,80 Blue Jays Way,142.3621804246141,-79.3923,43.64541,"Japanese, Korean, Asian Fusion",8.0,4,49,0,0,0,1,0,0,0,0,0,0,1,0,0
4a5734eee8c1c49197ffe9b992dd032a,r_BrIgzYcwo1NAuG9dLbpg,Pai Northern Thai Kitchen,18 Duncan Street,541.4726899576049,-79.38872,43.64784,Thai,9.0,2,49,0,1,0,0,0,0,0,0,0,0,0,1,0
4a5734eee8c1c49197ffe9b992dd032a,_cjPEH9wXhKS-HQe_U3M4Q,Le Sélect Bistro,432 Wellington Street W,318.5487503296716,-79.39685231028895,43.643905577145816,"French, Coffee & Tea, Breakfast & Brunch",8.0,3,49,0,0,1,0,0,0,0,0,0,0,1,0,0
4a5734eee8c1c49197ffe9b992dd032a,d8Kz48UDfZ0MPuQpGy2r0Q,Kost,80 Blue Jays Way,142.3621804246141,-79.3923,43.64541,"American, Breakfast & Brunch",7.0,3,49,0,0,1,0,0,0,0,0,0,1,0,0,0
4a5734eee8c1c49197ffe9b992dd032a,LBQD0H2109oltJNF1raLWA,The Haam,342 Adelaide St W,369.2987799133024,-79.39308,43.64743,"Japanese, Mexican, Sushi Bars",8.0,2,49,0,1,0,0,0,0,0,0,0,0,1,0,0
4a5734eee8c1c49197ffe9b992dd032a,b4LmLgVdbhM-nc1IZc5Weg,Rodney's Oyster House,469 King Street W,332.18371131986623,-79.396846,43.644948,Seafood,8.0,3,49,0,0,1,0,0,0,0,0,0,0,1,0,0
4a5734eee8c1c49197ffe9b992dd032a,mG71gQ5HWl7ut9OCN6NJKA,360 Restaurant,290 Bremner Blvd,321.11154129559867,-79.3898128,43.6422401,Canadian (New),7.0,4,49,0,0,0,1,0,0,0,0,0,1,0,0,0
4a5734eee8c1c49197ffe9b992dd032a,Yl2TN9c23ZGLUBSD9ks5Uw,Byblos,11 Duncan Street,545.0994096945304,-79.388123,43.647546,"Mediterranean, Middle Eastern",9.0,4,49,0,0,0,1,0,0,0,0,0,0,0,1,0
4a5734eee8c1c49197ffe9b992dd032a,B70iTJjcPkuYn8ouUewWgw,Gusto 101,101 Portland Street,605.1313429514577,-79.400309337027,43.645002131066,Italian,8.0,2,49,0,1,0,0,0,0,0,0,0,0,1,0,0
fba4560a5641afdb69a97d04466ef788,Uq-GOs9_IqweUsB5MdII9w,Emma's Country Kitchen,810 Saint Clair Avenue W,971.9602707810232,-79.4303599,43.68103,"Breakfast & Brunch, Comfort Food, Donuts",8.0,2,50,0,1,0,0,0,0,0,0,0,0,1,0,0
fba4560a5641afdb69a97d04466ef788,5wbJ-4W2VxH11XHmJ_4h5g,Thai Noodle,62 Vaughan Road,149.1483364927823,-79.4200096887758,43.6823223153413,"Thai, Noodles",7.0,2,50,0,1,0,0,0,0,0,0,0,1,0,0,0
fba4560a5641afdb69a97d04466ef788,If8BMnK0BFY213rOtxs9Yg,Sea Witch Fish and Chips,636 Saint Clair Avenue W,437.13275849665735,-79.4239619,43.6822185,Fish & Chips,8.0,2,50,0,1,0,0,0,0,0,0,0,0,1,0,0
fba4560a5641afdb69a97d04466ef788,1N5cHdQi_DdK0XpvfpSyRw,Queen of Persia,672A St Clair Avenue W,556.9662153280793,-79.42542,43.68203,Persian/Iranian,9.0,3,50,0,0,1,0,0,0,0,0,0,0,0,1,0
fba4560a5641afdb69a97d04466ef788,oKfiAU3X4C2chk6DJdKPAQ,Dutch Dreams,36 Vaughan Road,139.8705701934789,-79.4189199884504,43.6820453240015,Ice Cream & Frozen Yogurt,8.0,2,50,0,1,0,0,0,0,0,0,0,0,1,0,0
fba4560a5641afdb69a97d04466ef788,rvHGv9Q7r5QkIYrCZlfoAQ,Pukka,778 St. Clair Avenue W,879.2896725406684,-79.429274,43.681191,Indian,8.0,3,50,0,0,1,0,0,0,0,0,0,0,1,0,0
fba4560a5641afdb69a97d04466ef788,LFxMt7Oi0vdsmZ3h_UBV-g,Nodo Restaurant,794 Saint Clair Avenue W,925.35920522367,-79.4297991693019,43.6810110636599,Italian,9.0,2,50,0,1,0,0,0,0,0,0,0,0,0,1,0
25beb3f096bca69d14c865774e03b0e8,JTcsBnLgSh5vNVLD734g4w,Supercoffee,1148 Weston Road,968.564706095664,-79.489488,43.6868464,Coffee & Tea,9.0,1,51,1,0,0,0,0,0,0,0,0,0,0,1,0
25beb3f096bca69d14c865774e03b0e8,Pd61kr7Tfoh0lLq7Kz8PuQ,V's Caribbean Restaurant,1221 Weston Road,877.2408665801984,-79.4923699,43.68828,"Caribbean, Vegan",9.0,2,51,0,1,0,0,0,0,0,0,0,0,0,1,0
25beb3f096bca69d14c865774e03b0e8,weOAEzNCqPXHn7KQlTId2g,O Patio Churrasqueira,2255 Keele Street,1135.4030530038572,-79.4759674,43.7015495,Portuguese,7.0,3,51,0,0,1,0,0,0,0,0,0,1,0,0,0
25beb3f096bca69d14c865774e03b0e8,Qnp8ao-AnxdTECgMscrdKA,Churrasqueira Estrela,2275 Keele St,1246.4780665597548,-79.476168,43.702645,Portuguese,9.0,1,51,1,0,0,0,0,0,0,0,0,0,0,1,0
25beb3f096bca69d14c865774e03b0e8,4zmB6a8s6F-u46JYVixmrg,244 Pizza & Wings,1166 Weston Rd,943.0672245024105,-79.4905,43.68719,Pizza,8.0,1,51,1,0,0,0,0,0,0,0,0,0,1,0,0
25beb3f096bca69d14c865774e03b0e8,f1VG-Th1EvCJ9hVGPxUI5w,The Pit Stop Restaurant,2300 Keele Street,1230.547593312828,-79.47711,43.70324,"Breakfast & Brunch, American",8.0,1,51,1,0,0,0,0,0,0,0,0,0,1,0,0
25beb3f096bca69d14c865774e03b0e8,P5NfFdOUSyhEjbMlfnxPpA,Dynasty House Seafood Restaurant,1635 Lawrence Avenue West,1053.1135013177018,-79.4921188,43.7045112,Dim Sum,6.0,2,51,0,1,0,0,0,0,0,0,1,0,0,0,0
1b853c3b515bbb20d04729c8059f08ee,ZKklfxHUlL8_xReUyZfSUQ,Vibo Restaurant,2995 Bloor Street W,377.6764158655895,-79.50991,43.64741,"Italian, Canadian (New)",8.0,2,52,0,1,0,0,0,0,0,0,0,0,1,0,0
1b853c3b515bbb20d04729c8059f08ee,VFRSCkkLM_h3qWpVXPd5VA,Momiji Sushi Bar and Grill,2955 Bloor Street W,249.13546229869067,-79.50851,43.64779,"Sushi Bars, Japanese",8.0,2,52,0,1,0,0,0,0,0,0,0,0,1,0,0
1b853c3b515bbb20d04729c8059f08ee,zeOJYl5UW4D5u3Vcj6QAoA,Azarias,3058 Bloor Street W,627.102437298167,-79.5131954,43.6469981,"Canadian (New), Beer, Wine & Spirits",9.0,3,52,0,0,1,0,0,0,0,0,0,0,0,1,0
1b853c3b515bbb20d04729c8059f08ee,ibwLiK-WzGnKFYmQ4R8Jtg,Jules Cafe Patisserie,2898 Bloor Street W,69.19725378611022,-79.50639,43.64868,"Coffee & Tea, Breakfast & Brunch, Bakeries",8.0,1,52,1,0,0,0,0,0,0,0,0,0,1,0,0
1b853c3b515bbb20d04729c8059f08ee,hjdKH8-hrV97anWxX0JBqQ,Creme De La Creme Cafe,2991 Bloor Street W,356.65183847239217,-79.50975,43.64747,Breakfast & Brunch,7.0,2,52,0,1,0,0,0,0,0,0,0,1,0,0,0
1b853c3b515bbb20d04729c8059f08ee,8S60rwfUEDwOv0VE27ySTg,Demetres,2962 Bloor Street W,238.30365640493025,-79.50863,43.64821,"Desserts, Coffee & Tea, Ice Cream & Frozen Yogurt",8.0,2,52,0,1,0,0,0,0,0,0,0,0,1,0,0
1b853c3b515bbb20d04729c8059f08ee,JzU16A6I0EFO3k4IrUBxgA,Just Greek Restaurant,3004 Bloor St W,395.561829768496,-79.5104999,43.64781,"Greek, Mediterranean",7.0,2,52,0,1,0,0,0,0,0,0,0,1,0,0,0
1b853c3b515bbb20d04729c8059f08ee,f-gbagOKzs-72s49cF3qRg,Eggsmart,2947a Bloor Street West,198.8828728454484,-79.5077255825328,43.6479054,Breakfast & Brunch,7.0,2,52,0,1,0,0,0,0,0,0,0,1,0,0,0
1b853c3b515bbb20d04729c8059f08ee,YXeRxDKwR0EuVKQwvTQVBQ,Souvlaki Hut Greek Taverna,3080 Bloor Street W,713.3703754591857,-79.514306858182,43.6469190191684,Greek,9.0,2,52,0,1,0,0,0,0,0,0,0,0,0,1,0
1053161189e46ea1c3122c94b644bc9d,fobkeIEzbJtej-udG4UoRg,Madrina Bar y Tapas,2 Trinity Street,183.3216008786852,-79.35967868465576,43.64971833602106,Tapas Bars,8.0,2,53,0,1,0,0,0,0,0,0,0,0,1,0,0
1053161189e46ea1c3122c94b644bc9d,UxWH8zRYIBgs6Q2oykvRdw,Cluny Bistro & Boulangerie,35 Tank House Lane,204.56677738005504,-79.3578962,43.6505879,"French, Wine Bars, Cocktail Bars",7.0,3,53,0,0,1,0,0,0,0,0,0,1,0,0,0
1053161189e46ea1c3122c94b644bc9d,a8pmtlVKf7NiSLI-4KejIw,El Catrin Destileria,18 Tank House Lane,162.69864691071828,-79.35883,43.65052,Mexican,7.0,3,53,0,0,1,0,0,0,0,0,0,1,0,0,0
1053161189e46ea1c3122c94b644bc9d,zIfCWjZ0RAe8YVMSPZdOdA,Pure Spirits,17 Tank House Lane,158.27030232038013,-79.358722,43.650404,"Seafood, Bars",6.0,3,53,0,0,1,0,0,0,0,0,1,0,0,0,0
1053161189e46ea1c3122c94b644bc9d,MT-lkIacLNyC7KF2dY997A,Mill Street Beer Hall,21 Tank House Lane,173.6526548339056,-79.3584427521102,43.6504424511321,"Gastropubs, Bars, Canadian (New)",6.0,2,53,0,1,0,0,0,0,0,0,1,0,0,0,0
1053161189e46ea1c3122c94b644bc9d,TngEu-Si_L2D-AsicoF7yQ,BOKU,42 Gristmill Lane,137.37724710807262,-79.36022,43.65006,"Ramen, Cocktail Bars",7.0,2,53,0,1,0,0,0,0,0,0,0,1,0,0,0
1053161189e46ea1c3122c94b644bc9d,apHPFnDUIaZM7uZoB9DXfw,Archeo,31 Trinity Street,90.06491780890359,-79.3595404809133,43.6506799168741,"Italian, Bars",7.0,2,53,0,1,0,0,0,0,0,0,0,1,0,0,0
1053161189e46ea1c3122c94b644bc9d,Zq9WPT7ZAOYlQ0GV8OQWKQ,Cluck Clucks,222 The Esplanade,501.939675076186,-79.3660896960711,43.6497687124273,"Chicken Shop, Comfort Food, Sandwiches",9.0,2,53,0,1,0,0,0,0,0,0,0,0,0,1,0
722489dd6bf1f264c874454cf3f3f56a,KxHDiCOhHWQu_VOw8DMfJA,The Hole In the Wall,2867 Dundas Street W,902.817740138894,-79.46515,43.66518,"Pubs, Canadian (New)",9.0,2,54,0,1,0,0,0,0,0,0,0,0,0,1,0
722489dd6bf1f264c874454cf3f3f56a,PyjnsWzNUTo1n2ohq0QznA,Dirty Food Eatery,3070 Dundas Street W,1100.7196859359367,-79.47188,43.66565,"Breakfast & Brunch, Comfort Food, Southern",9.0,2,54,0,1,0,0,0,0,0,0,0,0,0,1,0
722489dd6bf1f264c874454cf3f3f56a,y-Iw6dZflNix4BdwIyTNGA,Indie Ale House,2876 Dundas Street W,921.5836455441377,-79.4652382135862,43.6654413783034,"Breweries, Gastropubs, Pizza",8.0,2,54,0,1,0,0,0,0,0,0,0,0,1,0,0
722489dd6bf1f264c874454cf3f3f56a,-eJmNm0j12v1wuyIkfj7yQ,Honest Weight,2766 Dundas Street W,946.7101553829172,-79.4614855543404,43.6653335939817,"Seafood, Seafood Markets",9.0,2,54,0,1,0,0,0,0,0,0,0,0,0,1,0
722489dd6bf1f264c874454cf3f3f56a,HOGdBz2w9VZbw2yyM-WA3g,The Mugshot Tavern,1729 Bloor Street W,507.0504406260701,-79.45957,43.6546,Bars,8.0,2,54,0,1,0,0,0,0,0,0,0,0,1,0,0
722489dd6bf1f264c874454cf3f3f56a,hcHaWzM5wfdAbCWs4zmmqg,Nodo - Junction,2885 Dundas Street West,907.6159834597692,-79.465596,43.665251,Italian,8.0,2,54,0,1,0,0,0,0,0,0,0,0,1,0,0
722489dd6bf1f264c874454cf3f3f56a,X-66Npl7XhHw-9YIC0mb5A,Chica's Nashville Hot Chicken,2853 Dundas Street W,900.3573181892494,-79.46423,43.66518,"Chicken Shop, Southern",9.0,2,54,0,1,0,0,0,0,0,0,0,0,0,1,0
722489dd6bf1f264c874454cf3f3f56a,Zd5bvGvlSmksBJXrevtxEQ,Isaan Der,2961 Dundas Street W,938.590221297209,-79.4679385,43.6652858,Thai,8.0,2,54,0,1,0,0,0,0,0,0,0,0,1,0,0
41c3e6d3bf3bd993e7d56e22084ab5ee,mZRKH9ngRY92bI_irrHq6w,Richmond Station,1 Richmond Street W,591.0903170130698,-79.379285,43.6513729,Canadian (New),9.0,3,55,0,0,1,0,0,0,0,0,0,0,0,1,0
41c3e6d3bf3bd993e7d56e22084ab5ee,JMiaNitMzMbJm6Kh0RbT5A,Canoe,66 Wellington Street  W,349.5029706157221,-79.382159,43.646954,Canadian (New),8.0,4,55,0,0,0,1,0,0,0,0,0,0,1,0,0
41c3e6d3bf3bd993e7d56e22084ab5ee,r_BrIgzYcwo1NAuG9dLbpg,Pai Northern Thai Kitchen,18 Duncan Street,883.769576992056,-79.38872,43.64784,Thai,9.0,2,55,0,1,0,0,0,0,0,0,0,0,0,1,0
41c3e6d3bf3bd993e7d56e22084ab5ee,Gl6xFX8vM5dqknF9azPCMQ,The Keg Steakhouse + Bar - Esplanade,26 The Esplanade,269.3002767598052,-79.37472901368122,43.64677055042841,"Steakhouses, Bars, Seafood",8.0,3,55,0,0,1,0,0,0,0,0,0,0,1,0,0
41c3e6d3bf3bd993e7d56e22084ab5ee,50-xiTYmE6NERi-yJ6NvHw,Biff's Bistro,4 Front Street  E,193.77793338605093,-79.3766496,43.6476052,French,7.0,3,55,0,0,1,0,0,0,0,0,0,1,0,0,0
41c3e6d3bf3bd993e7d56e22084ab5ee,kuJRRmmmDUXqwM6kNihXXA,Jump Restaurant,18 Wellington Street W,196.1324142533377,-79.3780646,43.6479063,"Canadian (New), Wine Bars",7.0,3,55,0,0,1,0,0,0,0,0,0,1,0,0,0
41c3e6d3bf3bd993e7d56e22084ab5ee,O-uIEuv7JLUHajkemx_sVw,Beerbistro,18 King Street E,395.9550978164954,-79.377165,43.649628,"Bistros, Beer Bar, Comfort Food",8.0,2,55,0,1,0,0,0,0,0,0,0,0,1,0,0
41c3e6d3bf3bd993e7d56e22084ab5ee,gy5pr5bFAjOL5rERSdMCLg,The Keg Steakhouse + Bar - York Street,165 York Street,646.3388308381612,-79.38395891300931,43.650011481693866,"Steakhouses, Bars, Seafood",8.0,3,55,0,0,1,0,0,0,0,0,0,0,1,0,0
41c3e6d3bf3bd993e7d56e22084ab5ee,w5-llUi5t59YZRI_dOSi0w,Library Bar,100 Front Street W,255.4462873998327,-79.3811365,43.6461717,"Lounges, Canadian (New), Cocktail Bars",8.0,3,55,0,0,1,0,0,0,0,0,0,0,1,0,0
ddba9c631e11fbae48e2be60289f60c2,IZzJaZWvw-IUrOLkP09JRQ,Allen's,143 Danforth Avenue,223.41711985940063,-79.357315938409,43.676421425352,"Irish, Pubs",6.0,2,56,0,1,0,0,0,0,0,0,1,0,0,0,0
ddba9c631e11fbae48e2be60289f60c2,RqOgBMpKYdsEOmBVmFXe3g,RYUS Noodle Bar,786 Broadview Avenue,151.17647131013635,-79.35905,43.6771,Ramen,8.0,2,56,0,1,0,0,0,0,0,0,0,0,1,0,0
ddba9c631e11fbae48e2be60289f60c2,aadG1TzULt-ezzUJZUSSJQ,Factory Girl,193 Danforth Avenue,253.39267405212752,-79.3561299,43.67648,"Pizza, Italian",7.0,2,56,0,1,0,0,0,0,0,0,0,1,0,0,0
ddba9c631e11fbae48e2be60289f60c2,NxpaDfYm8OB14Zw9QDFejA,Tapas at Embrujo,97 Danforth Avenue,241.50883669355807,-79.3582931,43.67615,"Tapas/Small Plates, Spanish",7.0,3,56,0,0,1,0,0,0,0,0,0,1,0,0,0
ddba9c631e11fbae48e2be60289f60c2,IBZ6e3P0OqcPXVjvGlpueQ,Off The Hook Fishbar,749 Broadview Avenue,268.22562203756297,-79.358405,43.6759128,"Fish & Chips, Seafood",7.0,2,56,0,1,0,0,0,0,0,0,0,1,0,0,0
ddba9c631e11fbae48e2be60289f60c2,Jo3Cpvf8fpfcAIFG3TagbQ,Pantheon Restaurant,407 Danforth Avenue,561.206037915142,-79.35129,43.67744,"Greek, Mediterranean",8.0,2,56,0,1,0,0,0,0,0,0,0,0,1,0,0
ddba9c631e11fbae48e2be60289f60c2,XIRKBWMyW8bC7bZdyoabiQ,Papyrus,337 Danforth Avenue,418.20080419896055,-79.35324,43.67709,Egyptian,10.0,2,56,0,1,0,0,0,0,0,0,0,0,0,0,1
ddba9c631e11fbae48e2be60289f60c2,nDn2h-_c7Xk4UwM0aiXZlw,Mezes,456 Danforth Avenue,641.461359429528,-79.3502475,43.6781397,"Greek, Mediterranean",8.0,2,56,0,1,0,0,0,0,0,0,0,0,1,0,0
ddba9c631e11fbae48e2be60289f60c2,1W_gZM_uuEvJqapbIl6z9Q,El Charro,788 Broadview ave,145.50909239044623,-79.3590065,43.6771428,Mexican,8.0,1,56,1,0,0,0,0,0,0,0,0,0,1,0,0
ddba9c631e11fbae48e2be60289f60c2,_uozYXJl42wCax5HG5kU0Q,Rodeo Brazilian Steakhouse,95 Danforth Avenue,229.82782177699715,-79.3581314,43.6762554,"Steakhouses, Barbeque",6.0,3,56,0,0,1,0,0,0,0,0,1,0,0,0,0
3654ed1bd8516fddd2364502084cd01b,g9cKOi-6XzQne3s5TqA2fQ,Pho Dau Bo Restaurant,2437 Finch Avenue W,179.5201221082426,-79.54943346021537,43.749908507612446,Vietnamese,8.0,1,57,1,0,0,0,0,0,0,0,0,0,1,0,0
3654ed1bd8516fddd2364502084cd01b,K9xTkwZX-ZdMWPK8EQOy6A,Malado Sushi,2437 Finch Avenue W,191.6581285851097,-79.5492041852501,43.74994407731074,"Japanese, Korean, Sushi Bars",8.0,2,57,0,1,0,0,0,0,0,0,0,0,1,0,0
3654ed1bd8516fddd2364502084cd01b,w-Q_ZVaRk3_6SGI2_zIR3g,Plaza Latina,9 Milvan Drive,334.7467941330505,-79.55198,43.75125,Food Court,8.0,2,57,0,1,0,0,0,0,0,0,0,0,1,0,0
3654ed1bd8516fddd2364502084cd01b,zQD5Gb2LjPsCCsWXVK2RIg,Bun Bo Hue,2385 Finch Ave W,628.8655886251122,-79.54368,43.75126,Vietnamese,8.0,1,57,1,0,0,0,0,0,0,0,0,0,1,0,0
3654ed1bd8516fddd2364502084cd01b,am_CSSt5d7C3pIEjJpXvQw,Banh Mi Que Huong,2437 Finch Avenue W,152.36428703197416,-79.54987303714478,43.74976968483877,"Vietnamese, Sandwiches",7.0,1,57,1,0,0,0,0,0,0,0,0,1,0,0,0
f4d33af4f0cfe71c2bc31fa004030b47,_T7f2wUgNlJqxsR-cR89SQ,Scaramouche Restaurant Pasta Bar & Grill,1 Benvenuto Place,613.4344627329764,-79.39991,43.68155,"French, Bars",9.0,4,58,0,0,0,1,0,0,0,0,0,0,0,1,0
f4d33af4f0cfe71c2bc31fa004030b47,0cpLF0LFQHHRFNlL0iy_Aw,Union Social Eatery,21 Saint Clair Avenue W,486.9964532099364,-79.3950692564249,43.687794516424,"American, Canadian (New)",8.0,2,58,0,1,0,0,0,0,0,0,0,0,1,0,0
f4d33af4f0cfe71c2bc31fa004030b47,GO3d6vQBfByJN93Hco4dOQ,Megumi Mazesoba,46 Saint Clair Avenue E,758.3010042573165,-79.39196,43.68876,Japanese,9.0,2,58,0,1,0,0,0,0,0,0,0,0,0,1,0
f4d33af4f0cfe71c2bc31fa004030b47,MOB5oCEKCw3S76SsiuQjqA,Mary Be Kitchen,21B St. Clair Avenue W,491.3177849334006,-79.3949,43.68769,Canadian (New),9.0,2,58,0,1,0,0,0,0,0,0,0,0,0,1,0
f4d33af4f0cfe71c2bc31fa004030b47,9i7Gz3xaa-gwh1Fi3q1_kA,BlueBlood Steakhouse,1 Austin Terrace,1196.02703537681,-79.40948,43.6781099,Steakhouses,7.0,4,58,0,0,0,1,0,0,0,0,0,1,0,0,0
f4d33af4f0cfe71c2bc31fa004030b47,67Pa_CtXthgJzXfY8JzLDQ,Holy Chuck,1450 Yonge Street,562.1382376708498,-79.39406,43.68753,Burgers,7.0,2,58,0,1,0,0,0,0,0,0,0,1,0,0,0
f4d33af4f0cfe71c2bc31fa004030b47,Cra7jGcAh_McPTHpm9YlTQ,Umami Poke,1252 Yonge Street,816.6327837591932,-79.39229,43.68318,"Hawaiian, Seafood, Poke",9.0,2,58,0,1,0,0,0,0,0,0,0,0,0,1,0
f4d33af4f0cfe71c2bc31fa004030b47,C_g3n0TGN9IVtwED4WiavA,Sunny Morning,1392 Yonge Street,599.6515007146066,-79.3935545,43.6865257,Breakfast & Brunch,8.0,2,58,0,1,0,0,0,0,0,0,0,0,1,0,0
c845b03b2ffaa03ebba13b5c61da3af2,0a2O150ytxrDjDzXNfRWkA,Miku,105-10 Bay Street,55.02579641784229,-79.3773697,43.6412346,"Japanese, Sushi Bars",8.0,4,59,0,0,0,1,0,0,0,0,0,0,1,0,0
c845b03b2ffaa03ebba13b5c61da3af2,4POPYEONJpkfhWOMx_PyGg,Harbour 60,60 Harbour Street,183.74677479967164,-79.378455,43.642105,"Steakhouses, Seafood",7.0,4,59,0,0,0,1,0,0,0,0,0,1,0,0,0
c845b03b2ffaa03ebba13b5c61da3af2,bvDj7-uBqVzzDpn2hC7VTw,Don Alfonso 1890,1 Harbour Square,95.84739810255782,-79.3758977,43.6413515,"Italian, Wine Bars, Cocktail Bars",8.0,4,59,0,0,0,1,0,0,0,0,0,0,1,0,0
c845b03b2ffaa03ebba13b5c61da3af2,r_BrIgzYcwo1NAuG9dLbpg,Pai Northern Thai Kitchen,18 Duncan Street,1226.1587673065526,-79.38872,43.64784,Thai,9.0,2,59,0,1,0,0,0,0,0,0,0,0,0,1,0
c845b03b2ffaa03ebba13b5c61da3af2,gy5pr5bFAjOL5rERSdMCLg,The Keg Steakhouse + Bar - York Street,165 York Street,1158.522401147282,-79.38395891300931,43.650011481693866,"Steakhouses, Bars, Seafood",8.0,3,59,0,0,1,0,0,0,0,0,0,0,1,0,0
c845b03b2ffaa03ebba13b5c61da3af2,Yl2TN9c23ZGLUBSD9ks5Uw,Byblos,11 Duncan Street,1168.6271136639066,-79.388123,43.647546,"Mediterranean, Middle Eastern",9.0,4,59,0,0,0,1,0,0,0,0,0,0,0,1,0
c845b03b2ffaa03ebba13b5c61da3af2,dPrFp1cxaTeTe9cyL36NkA,The Miller Tavern,31 Bay Street,159.03847676878812,-79.377305119129,43.6423578537475,"Bars, Steakhouses, Seafood",6.0,2,59,0,1,0,0,0,0,0,0,1,0,0,0,0
c845b03b2ffaa03ebba13b5c61da3af2,EhGPj8iJDIdaHnWg9d5BgA,Pearl Harbourfront Chinese Cuisine,207 Queens Quay W,323.0285678691253,-79.3806,43.63877,"Dim Sum, Seafood, Noodles",7.0,2,59,0,1,0,0,0,0,0,0,0,1,0,0,0
3d2b767a1af0d75059d1fd78079d1216,DtERMhgmOnKX2G4ln3MR4g,Nino D'aversa Bakery,1 Toro Road,106.83194219726948,-79.488804,43.759598,"Bakeries, Pizza",7.0,2,60,0,1,0,0,0,0,0,0,0,1,0,0,0
3d2b767a1af0d75059d1fd78079d1216,r0tkO_ekXqzy5SPwGVJ7mQ,Fox & Fiddle-Finch,1285 Finch Avenue W,514.4752516371665,-79.48848,43.7637,Pubs,7.0,2,60,0,1,0,0,0,0,0,0,0,1,0,0,0
3d2b767a1af0d75059d1fd78079d1216,KENynjpbyq33DjGWXOip2Q,Pizza Nova,3928 Keele Street,413.20172051709454,-79.4914169311523,43.762767791748,Pizza,8.0,1,60,1,0,0,0,0,0,0,0,0,0,1,0,0
3d2b767a1af0d75059d1fd78079d1216,XxnnXca0ODSmMpS5QrWlCg,Taco Bell,3777 Keele St,75.65869172575313,-79.4896949,43.7585522,Mexican,3.0,2,60,0,1,0,0,0,1,0,0,0,0,0,0,0
3d2b767a1af0d75059d1fd78079d1216,nYyTNnLUbwEmayvGRUy8mw,KFC,3777 Keele Street,76.78480589602034,-79.48918,43.75885,"Chicken Wings, Fast Food, Chicken Shop",3.0,1,60,1,0,0,0,0,1,0,0,0,0,0,0,0
3d2b767a1af0d75059d1fd78079d1216,Gu5wXioZZkkc6xiGHh7xZQ,Willy's Jerk,3889 Keele Street,182.22319977006592,-79.48952,43.7609,Caribbean,6.0,1,60,1,0,0,0,0,0,0,0,1,0,0,0,0
3d2b767a1af0d75059d1fd78079d1216,61eXtTmhDepujO7_IdA9-w,Caribbean Heat Family Restaurant,1300 Finch Avenue W,618.4567943657142,-79.48984,43.76484,"Caribbean, Chinese",6.0,2,60,0,1,0,0,0,0,0,0,1,0,0,0,0
f889b35bb8077eaa77f35bed4d524e89,LTEVTg3qCGnlGaExZMAejw,No Bull Burgers,1019 Kingston Road,516.079571160269,-79.28503,43.68057,Burgers,8.0,2,61,0,1,0,0,0,0,0,0,0,0,1,0,0
f889b35bb8077eaa77f35bed4d524e89,t_XpjR3_Cf7r9tj3w3vAbw,The Beech Tree,924 Kingston Road,796.2216008025175,-79.2888628,43.6803871,"Wine Bars, British",8.0,2,61,0,1,0,0,0,0,0,0,0,0,1,0,0
f889b35bb8077eaa77f35bed4d524e89,Xu1_lZl30we4PQlJ58zQ9w,The Green Dragon,1032 Kingston Road,471.1385004665684,-79.28474,43.68097,"Chicken Wings, Pubs",8.0,2,61,0,1,0,0,0,0,0,0,0,0,1,0,0
f889b35bb8077eaa77f35bed4d524e89,biqnUUHYHsNBCI5BpMM8Xw,The Feathers Pub,962 Kingston Road,683.4731445391546,-79.2875,43.68068,"British, Pubs",7.0,2,61,0,1,0,0,0,0,0,0,0,1,0,0,0
f889b35bb8077eaa77f35bed4d524e89,VBuKT-rMerKVPSvLtUv3Rg,Quarry Cafe,2560 Gerrard Street E,620.9989736676935,-79.279983795978,43.688649418358,"Coffee & Tea, Breakfast & Brunch",8.0,2,61,0,1,0,0,0,0,0,0,0,0,1,0,0
7a271c4cbc993e06ac677f78d5b6ba4b,Jmay78aOzmyWHkpviqUEGA,Actinolite Restaurant,971 Ossington Avenue,255.6141251347892,-79.4280907,43.6678849,Canadian (New),8.0,4,62,0,0,0,1,0,0,0,0,0,0,1,0,0
7a271c4cbc993e06ac677f78d5b6ba4b,-ltD-dHqdZ5-wjAMKYa6Ng,La Bella Managua,872 Bloor Street W,531.0539829169862,-79.42495,43.66232,"Latin American, Nicaraguan",9.0,2,62,0,1,0,0,0,0,0,0,0,0,0,1,0
7a271c4cbc993e06ac677f78d5b6ba4b,QPVc_HQYcQicsowyeMPpkA,Tallboys Craft Beer House,838 Bloor Street W,516.8561915796037,-79.42382,43.66256,"Pubs, Canadian (New), Burgers",8.0,2,62,0,1,0,0,0,0,0,0,0,0,1,0,0
7a271c4cbc993e06ac677f78d5b6ba4b,X6ZZksefmR_piQj2Gbnduw,Paldo Gangsan,694 Bloor Street  W,709.8839014632258,-79.41743,43.664,Korean,9.0,1,62,1,0,0,0,0,0,0,0,0,0,0,1,0
7a271c4cbc993e06ac677f78d5b6ba4b,QA30Lo1NlV8SjnkmEkd1-A,Daldongnae Korean BBQ - Christie,658 Bloor Street,819.7933189300647,-79.41566,43.66434,"Korean, Barbeque",9.0,3,62,0,0,1,0,0,0,0,0,0,0,0,1,0
7a271c4cbc993e06ac677f78d5b6ba4b,RrqcZLX05djKo1GVLMXMDQ,Korean Village Restaurant,628 Bloor Street W,896.9034482547426,-79.41444,43.66461,Korean,8.0,2,62,0,1,0,0,0,0,0,0,0,0,1,0,0
7a271c4cbc993e06ac677f78d5b6ba4b,DD_dSlQKcln7VXbN1qxcLA,Selam Restaurant & Lounge,812 Bloor Street W,514.6496752547545,-79.42269,43.66279,Ethiopian,9.0,2,62,0,1,0,0,0,0,0,0,0,0,0,1,0
7a271c4cbc993e06ac677f78d5b6ba4b,gtcsOodbmk4E0TulYHnlHA,Northwood,815 W Bloor Street,548.5074684009022,-79.42204,43.66248,"Cafes, Cocktail Bars",8.0,2,62,0,1,0,0,0,0,0,0,0,0,1,0,0
7a271c4cbc993e06ac677f78d5b6ba4b,nHFJtud7jWZhM9dHQ1eIRA,Buk Chang Dong Soon Tofu,691 Bloor Street W,766.4617654764047,-79.4169299,43.66363,Korean,8.0,2,62,0,1,0,0,0,0,0,0,0,0,1,0,0
7a271c4cbc993e06ac677f78d5b6ba4b,F_oPMHJrH42R67xp5eKtQA,Yummy Korean Food Restaurant,620 Bloor Street W,927.38152282604,-79.4140199,43.66469,Korean,8.0,2,62,0,1,0,0,0,0,0,0,0,0,1,0,0
e3c4ef5e47b905992ebcd262cc3df594,9LimxWLM3URfrCcQsUJ3yg,Breakwall BBQ,1910 Queen Street E,416.3064925086732,-79.304498,43.6693242,"Barbeque, Sports Bars, American",8.0,2,63,0,1,0,0,0,0,0,0,0,0,1,0,0
e3c4ef5e47b905992ebcd262cc3df594,pkxhsLgD1Ai_P0I3_NofbQ,Isabella's Mochi Donut Boutique,2066 Queen St East,598.4979241938636,-79.297255,43.670795,"Japanese, Breakfast & Brunch, Donuts",8.0,2,63,0,1,0,0,0,0,0,0,0,0,1,0,0
e3c4ef5e47b905992ebcd262cc3df594,jEqsHSLzQraqG1qaMNjsBA,La Sala Restaurant,1975a Queen Street E,385.55024099934366,-79.3006072193384,43.6697445896967,Italian,8.0,3,63,0,0,1,0,0,0,0,0,0,0,1,0,0
e3c4ef5e47b905992ebcd262cc3df594,np8wj1g3cgCoIcJ26zozpA,Green Eggplant Restaurant,2022 Queen Street E,510.2383962233816,-79.29875,43.67052,"Mediterranean, Canadian (New)",8.0,2,63,0,1,0,0,0,0,0,0,0,0,1,0,0
e3c4ef5e47b905992ebcd262cc3df594,uChnTTQzV7Nu7EDrluF6uw,Sauvignon Bistro,1862 Queen Street E,515.862569715898,-79.307099,43.668453,"Canadian (New), Desserts, Bistros",8.0,3,63,0,0,1,0,0,0,0,0,0,0,1,0,0
e3c4ef5e47b905992ebcd262cc3df594,tZt9k3BZ0AaXT4XCOEeRwQ,The Stone Lion,1958 Queen Street E,366.9133759677546,-79.302306,43.669559,Pubs,6.0,2,63,0,1,0,0,0,0,0,0,1,0,0,0,0
e3c4ef5e47b905992ebcd262cc3df594,bEEkF_uur6TA7tW_7-9XEQ,Gull & Firkin,1943 Queen Street E,352.66786440826075,-79.3026299,43.66924,Pubs,7.0,2,63,0,1,0,0,0,0,0,0,0,1,0,0,0
910e92b9e361308bb305c6780fce822f,qR4EIktJfQKc4rnKgBzvtw,Gyubee Japanese Grill - Bloor,335 Bloor Street W,288.08035998710403,-79.40047,43.66716,"Barbeque, Japanese",8.0,3,64,0,0,1,0,0,0,0,0,0,0,1,0,0
910e92b9e361308bb305c6780fce822f,eKznX8VTfcQrjCqXpeobiw,Rasa,196 Robert Street,550.5140328990351,-79.4039682,43.6627752,"Canadian (New), Tapas/Small Plates",9.0,2,64,0,1,0,0,0,0,0,0,0,0,0,1,0
910e92b9e361308bb305c6780fce822f,47wBHgBwQ8_70sjmXow_1g,Her Father's Cider Bar & Kitchen,119 Harbord Street,601.2928208848308,-79.40453,43.66232,"Gastropubs, Bars, Canadian (New)",9.0,2,64,0,1,0,0,0,0,0,0,0,0,0,1,0
910e92b9e361308bb305c6780fce822f,mTQe0UcEEeDlbfgZXU0SvQ,LA LA Bakeshop,346 A Bloor Street W,114.4797012203514,-79.4011304,43.6670868,"Vietnamese, Bakeries",9.0,2,64,0,1,0,0,0,0,0,0,0,0,0,1,0
910e92b9e361308bb305c6780fce822f,e41TP5cXZqSrz50xCBJqZw,Insomnia Restaurant & Lounge,563 Bloor Street W,586.0858380716753,-79.411003,43.665961,"Lounges, Breakfast & Brunch, Comfort Food",8.0,2,64,0,1,0,0,0,0,0,0,0,0,1,0,0
910e92b9e361308bb305c6780fce822f,bDut3KRQJ0qLElfaJNQFgg,Famoso Neapolitan,386 Bloor Street W,275.7782784578245,-79.40688,43.66626,Pizza,8.0,2,64,0,1,0,0,0,0,0,0,0,0,1,0,0
910e92b9e361308bb305c6780fce822f,CN5nuUQod0f8g3oh99qq0w,KINKA IZAKAYA ANNEX,559 Bloor St W,597.2214630493963,-79.410658,43.665157,"Japanese, Tapas/Small Plates, Pubs",8.0,2,64,0,1,0,0,0,0,0,0,0,0,1,0,0
910e92b9e361308bb305c6780fce822f,q9_gLvTNf11etVxbH7JY0Q,Yasu,81 Harbord Street,559.2870965083081,-79.40314,43.66269,"Japanese, Sushi Bars",9.0,4,64,0,0,0,1,0,0,0,0,0,0,0,1,0
