closest bike station id,poi_id,poi_name,address,distance,longitude,latitude,categories,rating,price
dcbcf9c681fbd3e77dfbea6df0e070bc,529612de11d2ab526191ccc9,Pai,"18 Duncan St (at Adelaide St W), Toronto ON M5H 3G8",345,-79.388636,43.647796,['Thai Restaurant'],9.3,2.0
dcbcf9c681fbd3e77dfbea6df0e070bc,5462ac56498e128ccafe8fea,Pizzeria Libretto,"155 University Ave (at Pearl St), Toronto ON M5H 3B7",275,-79.384955,43.648456,['Pizzeria'],8.7,2.0
dcbcf9c681fbd3e77dfbea6df0e070bc,5c08474447f876002c736b68,Wvrst Union Station,"65 Front St W, Toronto ON M5J 1E6",335,-79.381397,43.644898,['Beer Bar'],8.9,
dcbcf9c681fbd3e77dfbea6df0e070bc,50322b6ae4b09116a296568c,Soho House,"192 Adelaide St W (at Simcoe St.), Toronto ON M5H 0A4",333,-79.386412,43.6488,"['Speakeasy', 'Social Club']",8.9,2.0
dcbcf9c681fbd3e77dfbea6df0e070bc,5b6c842bc36588002c80a934,Cafe Landwer,"165 University Ave (Adelaide St W), Toronto ON M5H 3B8",321,-79.385137,43.648724,"['Café', 'Restaurant']",8.8,1.0
dcbcf9c681fbd3e77dfbea6df0e070bc,4b642db1f964a520b7a22ae3,Roundhouse Park,"255 Bremner Blvd (at Lower Simcoe St), Toronto ON M5V 3M9",465,-79.38613,43.641748,['Park'],9.3,
dcbcf9c681fbd3e77dfbea6df0e070bc,4ad4c05ef964a520cbf620e3,Steam Whistle Brewing,"255 Bremner Blvd (btwn Rees St. & Simcoe St.), Toronto ON M5V 3M9",476,-79.385267,43.641025,"['Brewery', 'Restaurant']",9.2,1.0
dcbcf9c681fbd3e77dfbea6df0e070bc,5346c98a498ed612110d0f60,IQ Food Co,"18 York St (Bremner Ave), Toronto ON M5J 2T8",425,-79.382333,43.643146,"['Wholesaler', 'Salad Restaurant', 'Snack Place', 'Food and Beverage Retail']",8.9,1.0
dcbcf9c681fbd3e77dfbea6df0e070bc,5fb5b1ca5e25237e72d6ec38,Minami,"225 King St W, Toronto ON M5V 3M2",267,-79.388266,43.646694,['Japanese Restaurant'],8.3,2.0
dcbcf9c681fbd3e77dfbea6df0e070bc,4ad69511f964a520e40721e3,The Keg Steakhouse + Bar,"165 York St (btwn Richmond St. & Adelaide St.), Toronto ON M5H 3R8",469,-79.384038,43.650038,['Steakhouse'],8.8,2.0
d1de2ddc0ea8a90d00ff717ad60a2f23,4b618500f964a52090162ae3,HTO Park,"339 Queens Quay W (at Rees St.), Toronto ON M5V 1A2",335,-79.388654,43.637636,['Park'],8.9,
d1de2ddc0ea8a90d00ff717ad60a2f23,4ad4c05ef964a520cbf620e3,Steam Whistle Brewing,"255 Bremner Blvd (btwn Rees St. & Simcoe St.), Toronto ON M5V 3M9",530,-79.385267,43.641025,"['Brewery', 'Restaurant']",9.2,1.0
d1de2ddc0ea8a90d00ff717ad60a2f23,4b642db1f964a520b7a22ae3,Roundhouse Park,"255 Bremner Blvd (at Lower Simcoe St), Toronto ON M5V 3M9",712,-79.38613,43.641748,['Park'],9.3,
d1de2ddc0ea8a90d00ff717ad60a2f23,4ae338e1f964a520e39121e3,Le Select Bistro,"432 Wellington St W (at Spadina Ave), Toronto ON M5V 1E3",692,-79.39683,43.643777,"['Wine Bar', 'Bistro', 'French Restaurant']",8.9,2.0
d1de2ddc0ea8a90d00ff717ad60a2f23,4b968fd3f964a520dfd434e3,Victoria Memorial Square,"Wellington St W (at Portland St), Toronto ON",779,-79.400289,43.643189,"['Park', 'Sports and Recreation']",8.8,
d1de2ddc0ea8a90d00ff717ad60a2f23,4fcc0dd177167574f0de38d5,Bar Hop,"391 King St W (at Charlotte St), Toronto ON M5V 1K1",800,-79.393658,43.645579,"['Beer Bar', 'Restaurant']",8.8,2.0
d1de2ddc0ea8a90d00ff717ad60a2f23,53879eb7498ee9aa7b6fe3d8,Toronto Public Library,"190 Fort York Blvd, Toronto ON M5V 0E7",689,-79.400408,43.639252,['Library'],8.5,
d1de2ddc0ea8a90d00ff717ad60a2f23,5952cf02829b0c59fa430f63,The Rec Room,"255 Bremner Blvd, Toronto ON M5V 3M9",506,-79.394392,43.641092,"['Arcade', 'Bar', 'Restaurant']",8.1,2.0
d1de2ddc0ea8a90d00ff717ad60a2f23,53af56a1498ee47d2a3a06d7,Tim Hortons,"249 Queens Dr (Rees Street), Toronto ON M9N 2H8",449,-79.38617,43.63877,"['Cafe, Coffee, and Tea House', 'Restaurant']",8.0,1.0
d1de2ddc0ea8a90d00ff717ad60a2f23,5346c98a498ed612110d0f60,IQ Food Co,"18 York St (Bremner Ave), Toronto ON M5J 2T8",927,-79.382333,43.643146,"['Wholesaler', 'Salad Restaurant', 'Snack Place', 'Food and Beverage Retail']",8.9,1.0
9fd381407b51a700753caec17607a127,50322b6ae4b09116a296568c,Soho House,"192 Adelaide St W (at Simcoe St.), Toronto ON M5H 0A4",141,-79.386412,43.6488,"['Speakeasy', 'Social Club']",8.9,2.0
9fd381407b51a700753caec17607a127,5462ac56498e128ccafe8fea,Pizzeria Libretto,"155 University Ave (at Pearl St), Toronto ON M5H 3B7",118,-79.384955,43.648456,['Pizzeria'],8.7,2.0
9fd381407b51a700753caec17607a127,529612de11d2ab526191ccc9,Pai,"18 Duncan St (at Adelaide St W), Toronto ON M5H 3G8",208,-79.388636,43.647796,['Thai Restaurant'],9.3,2.0
9fd381407b51a700753caec17607a127,5b6c842bc36588002c80a934,Cafe Landwer,"165 University Ave (Adelaide St W), Toronto ON M5H 3B8",148,-79.385137,43.648724,"['Café', 'Restaurant']",8.8,1.0
9fd381407b51a700753caec17607a127,4ad69511f964a520e40721e3,The Keg Steakhouse + Bar,"165 York St (btwn Richmond St. & Adelaide St.), Toronto ON M5H 3R8",316,-79.384038,43.650038,['Steakhouse'],8.8,2.0
9fd381407b51a700753caec17607a127,59f784dd28122f14f9d5d63d,HotBlack Coffee,"245 Queen St W (at St Patrick St), Toronto ON M5V 1Z4",381,-79.388748,43.650258,"['Café', 'Coffee Shop', 'Restaurant']",9.0,1.0
9fd381407b51a700753caec17607a127,5fb5b1ca5e25237e72d6ec38,Minami,"225 King St W, Toronto ON M5V 3M2",222,-79.388266,43.646694,['Japanese Restaurant'],8.3,2.0
9fd381407b51a700753caec17607a127,5c9aaa3f66f3cd002c95bd58,Ikkousha Ramen,"249 Queen St W (Queen/University), Toronto ON M5V 1Z4",378,-79.388748,43.650258,['Ramen Restaurant'],8.7,
9fd381407b51a700753caec17607a127,5c08474447f876002c736b68,Wvrst Union Station,"65 Front St W, Toronto ON M5J 1E6",469,-79.381397,43.644898,['Beer Bar'],8.9,
9fd381407b51a700753caec17607a127,55fc571f498ec35023360858,Cactus Club Cafe,"77 Adelaide St W (btwn Bay & York St), Toronto ON M5H 1P9",418,-79.381898,43.64952,['American Restaurant'],8.5,2.0
f42363acf4af847ca6fcdbe9b48c8290,5374b6f4498e371df1066313,Louie - Craft Coffee,"1187 King St W, Toronto ON M6K 3C5",187,-79.425585,43.639159,"['Café', 'Coffee Shop', 'Restaurant']",8.3,2.0
f42363acf4af847ca6fcdbe9b48c8290,5d6c625b92ab4500087abc20,Bar Poet,"1090 Queen St W (Dovercourt Road), Toronto ON M6J 1H8",643,-79.422194,43.643672,"['Bar', 'Pizzeria']",9.0,2.0
f42363acf4af847ca6fcdbe9b48c8290,4b7355a4f964a52044a92de3,Mildred's Temple Kitchen,"85 Hanna Ave (Liberty Village), Toronto ON M6K 3S3",403,-79.419945,43.640131,"['American Restaurant', 'Comfort Food Restaurant']",8.2,2.0
f42363acf4af847ca6fcdbe9b48c8290,4b632632f964a52085662ae3,Caffino,"1185 King St W (at Fraser Ave), Toronto ON M6K 3C5",147,-79.425455,43.639224,['Italian Restaurant'],7.8,3.0
f42363acf4af847ca6fcdbe9b48c8290,564625e8498ed0ce5e3ba2f7,Cafe Neon,"1024 Queen St W (Ossington), Toronto ON M6J 1H6",772,-79.419605,43.644141,"['Café', 'Restaurant']",8.9,1.0
f42363acf4af847ca6fcdbe9b48c8290,5cfd2dacbb8d36002cdff2a3,Forno Cultura,"1056 Queen St W, Toronto ON M6J 1H7",721,-79.420806,43.644054,"['Bakery', 'Restaurant']",8.7,1.0
f42363acf4af847ca6fcdbe9b48c8290,59d03b76d1a4022c64b036f8,Hello 123,"1122 Queen St W, Toronto ON M6J 1H9",589,-79.423508,43.643408,['Vegan and Vegetarian Restaurant'],8.3,2.0
f42363acf4af847ca6fcdbe9b48c8290,4ada6d8df964a520832221e3,Union Restaurant,"72A Ossington Ave (Queen St. W), Toronto ON M6J 2Y7",950,-79.419262,43.645794,"['French Restaurant', 'New American Restaurant']",9.1,2.0
f42363acf4af847ca6fcdbe9b48c8290,53e7ff72498ec1fa4deab5d0,Mamakas Taverna,"80 Ossington Ave, Toronto ON M6J 2Y7",952,-79.41974,43.646152,['Greek Restaurant'],9.0,2.0
f42363acf4af847ca6fcdbe9b48c8290,4ae1d132f964a520ab8721e3,Rustic Cosmo Cafe,"1278 Queen St W (Gwynne), Toronto ON M6K 1L4",640,-79.429889,43.6421,"['Coffee Shop', 'Fast Food Restaurant', 'Sandwich Spot']",8.3,1.0
c4a01864ecb66e9b1ee3023d3205a281,4aeb26cff964a52009bf21e3,The Only Cafe,"972 Danforth Ave (at Donlands Ave), Toronto ON M4J 1L9",218,-79.337798,43.680441,"['Beer Bar', 'Dive Bar', 'Mediterranean Restaurant']",8.5,2.0
c4a01864ecb66e9b1ee3023d3205a281,4afefd77f964a5209a3222e3,Square-Boy Drive-In,"875 Danforth Ave (at Jones Ave.), Toronto ON M4J 1L8",83,-79.339431,43.679818,"['Burger Joint', 'Greek Restaurant']",7.7,1.0
c4a01864ecb66e9b1ee3023d3205a281,4ba56d7bf964a5200b0639e3,Danforth Pizza House,"920 Danforth Ave (Jones), Toronto ON M4J 1L9",143,-79.338761,43.680316,['Pizzeria'],7.8,1.0
c4a01864ecb66e9b1ee3023d3205a281,4bf079c06f8aa59336f2c13c,Withrow Park,"725 Logan Ave (btwn Bain Ave. & McConnell Ave.), Toronto ON M4K 3C7",850,-79.348769,43.674989,['Park'],9.1,
c4a01864ecb66e9b1ee3023d3205a281,4afdfadff964a520a52c22e3,Mezes,"456 Danforth Ave (at Logan Ave.), Toronto ON M4K 1P4",806,-79.350094,43.678038,"['Greek Restaurant', 'Mediterranean Restaurant', 'Tapas Restaurant']",8.6,2.0
c4a01864ecb66e9b1ee3023d3205a281,4bd0b968a8b3a5938b7a645f,Withrow Park Off Leash Dog Park,"Logan Ave (Danforth), Toronto ON",832,-79.346856,43.673836,['Dog Park'],8.4,
c4a01864ecb66e9b1ee3023d3205a281,5682ae0f498e4930a69c33bb,The Shmooz,"590 Pape Ave (at Wroxeter Ave), Toronto ON M4K 3R8",584,-79.343517,43.6752,"['Café', 'Coffee Shop', 'Restaurant']",7.9,1.0
c4a01864ecb66e9b1ee3023d3205a281,53fea6ea498e56e70f356960,Souv Like,"708 Pape Ave (at Danforth Ave), Toronto ON M4K 3S7",302,-79.345368,43.679502,['Souvlaki Shop'],7.5,
c4a01864ecb66e9b1ee3023d3205a281,4eddcd237bebc294554744bb,Morgans on the Danforth,"1282 Danforth Ave (at Linsmore Cres.), Toronto ON M4J 1M6",858,-79.330334,43.682046,['Gastropub'],8.1,2.0
c4a01864ecb66e9b1ee3023d3205a281,4b084b7bf964a520580823e3,Toronto Public Library,"701 Pape Ave (at Danforth Ave), Toronto ON M4K 3S6",349,-79.344525,43.678608,['Library'],7.4,
beb87ea54499f95a614653924c99b9c4,514a4961e4b004a36b8d9ea0,Bar Isabel,"797 College St, Toronto ON M6G 1C7",414,-79.420682,43.654672,"['Cocktail Bar', 'American Restaurant', 'Tapas Restaurant']",9.1,3.0
beb87ea54499f95a614653924c99b9c4,4c9fb4d154c8a1cd0482994b,The Caledonian,"856 College St (btwn Ossington Ave and Concord Ave), Toronto ON M6H 1A2",318,-79.423659,43.654287,"['Whisky Bar', 'Gastropub']",8.6,2.0
beb87ea54499f95a614653924c99b9c4,54713d37498ec7371141032e,Civil Liberties,"878 Bloor St W (at Ossington Ave), Toronto ON M6G 1M5",572,-79.425123,43.662264,['Cocktail Bar'],8.8,3.0
beb87ea54499f95a614653924c99b9c4,5b3d62c9270ee7002c7de12e,Paradise Grapevine,"841 Bloor St W (Shaw), Toronto ON M6G 1M3",614,-79.423387,43.662222,['Wine Bar'],8.9,2.0
beb87ea54499f95a614653924c99b9c4,4adb7f2cf964a520342821e3,Dufferin Grove Park,"875 Dufferin St (btw Sylvan & Dufferin Park), Toronto ON M6H 3K8",571,-79.433583,43.656987,['Park'],8.7,
beb87ea54499f95a614653924c99b9c4,4b18570ef964a52023d123e3,The Emmet Ray,"924 College St, Toronto ON M6H 1A4",352,-79.425787,43.653851,"['Bar', 'Restaurant']",8.1,2.0
beb87ea54499f95a614653924c99b9c4,4b896cb7f964a520123532e3,La Bella Managua,"872 Bloor St W, Toronto ON M6G 1M5",579,-79.425086,43.662323,"['French Restaurant', 'Mexican Restaurant', 'South American Restaurant']",8.7,2.0
beb87ea54499f95a614653924c99b9c4,50456a23e4b0a30df06f1391,Tallboys Craft Beer House,"838 Bloor St W (at Shaw St.), Toronto ON M6G 1M2",620,-79.423902,43.662521,"['Pub', 'Restaurant']",8.6,2.0
beb87ea54499f95a614653924c99b9c4,4adb969ef964a520332921e3,Banjara Indian Cuisine,"796 Bloor St W (at Crawford St), Toronto ON M6G 1L7",706,-79.42181,43.663179,['Indian Restaurant'],8.8,1.0
beb87ea54499f95a614653924c99b9c4,55610dcd498e1b69839a65d9,Field Trip Cafe,"3 Westmoreland Ave (Bloor St W), Toronto ON M6H 2Z6",654,-79.430286,43.661214,"['Bakery', 'Beer Bar', 'Café']",8.6,1.0
1f5bb4fff3139fff3f927f1a4980dc1e,4ad4c05ef964a5209ff620e3,High Park,"1873 Bloor St W (at Parkside Dr), Toronto ON M6R 2Z3",886,-79.464477,43.653999,['Urban Park'],9.4,
1f5bb4fff3139fff3f927f1a4980dc1e,4bd30e129854d13acdbefc4d,Lithuania Park,"155 Oakmount Rd (at Glenlake & Keele), Toronto ON M1P 4N7",640,-79.462786,43.658895,['Park'],8.5,
1f5bb4fff3139fff3f927f1a4980dc1e,4bb8cb65314e95217ac3489d,High Park Offleash Dog Trail,"Colborne Lodge Dr (at Centre Rd), Toronto ON M6R 2Z3",855,-79.463705,43.646589,['Dog Park'],8.6,
1f5bb4fff3139fff3f927f1a4980dc1e,4e20e9d9e4cdf685918068b5,The Mugshot Tavern,"1729 Bloor St W (at Parkside Dr.), Toronto ON M6P 1B2",632,-79.459577,43.654638,"['Bar', 'Restaurant']",8.0,2.0
1f5bb4fff3139fff3f927f1a4980dc1e,5827446810a3441bad10b2f5,Hannah's Cafe and Bistro,"1822 Bloor St W, Toronto ON M6P 3K6",387,-79.462794,43.654291,"['Café', 'Restaurant']",7.5,1.0
1f5bb4fff3139fff3f927f1a4980dc1e,4f64f614e4b0eae10ad6bf2d,Zaza Espresso Bar,"258 Beresford Ave (at Bloor St W), Toronto ON M6S 3B3",877,-79.477943,43.651103,"['Café', 'Coffee Shop', 'Restaurant']",8.0,1.0
1f5bb4fff3139fff3f927f1a4980dc1e,4c99374b292a6dcb5f72c476,Osaka Sushi Japanese Restaurant,"1620 Bloor St W (Btwn Dorval & Indian Rd.), Toronto ON M6P 1A7",979,-79.45569,43.655765,['Sushi Restaurant'],8.1,2.0
1f5bb4fff3139fff3f927f1a4980dc1e,50e5ef7ee4b0e2b1ec8e24cf,Baka Gallery Cafe,"2256 Bloor St W (Beresford Ave), Toronto ON M6S 1N6",872,-79.477555,43.651019,"['Café', 'Coffee Shop', 'Restaurant']",7.9,1.0
1f5bb4fff3139fff3f927f1a4980dc1e,4d4c6033e1ec6dcb878bd875,Shakey's Original Bar and Grill,"2255W Bloor St W (Runnymede), Toronto ON M6S 1N8",881,-79.477686,43.650673,"['Gastropub', 'Pizzeria', 'American Restaurant']",7.8,3.0
1f5bb4fff3139fff3f927f1a4980dc1e,5556ccb2498ed73c5ee740d9,Aztec's Mine,"1986 Bloor St W (at Parkview Gardens), Toronto ON M6P 3K9",137,-79.468473,43.652976,['Tex-Mex Restaurant'],6.4,1.0
769a6cb25850b809d38c7a2620731b1e,4cc75fe53c40a35d09976e2e,R Bakery,"280 Viewmount Ave, North York ON M6B 1V2",234,-79.442982,43.707402,"['Bakery', 'Pastry Shop', 'Fast Food Restaurant']",8.1,1.0
769a6cb25850b809d38c7a2620731b1e,4dcdfc83091a2e3e5b7f0ad2,Viewmount Park,"169 Viewmount Ave, Toronto ON M6B 1T5",359,-79.437966,43.707936,"['Playground', 'Sports and Recreation']",7.4,
769a6cb25850b809d38c7a2620731b1e,52ed1927498e2e54dfbcc99b,McDonald's,"2781 Dufferin St (Risa Blvd), Toronto ON M6B 3R9",974,-79.452245,43.70504,"['Burger Joint', 'Fast Food Restaurant']",6.7,1.0
769a6cb25850b809d38c7a2620731b1e,4cc1de9b3d7fa1cd5c289b5f,Pizza Nova,"280 Viewmount Ave (Marlee), Toronto ON M6B 1V2",227,-79.442927,43.707349,['Pizzeria'],,1.0
769a6cb25850b809d38c7a2620731b1e,4cc0bf6e31ceef3b87645d0d,Domino's Pizza,"358 Marlee Ave, Toronto ON M6B 3H8",244,-79.44317,43.706826,"['Pizzeria', 'Fast Food Restaurant']",,1.0
769a6cb25850b809d38c7a2620731b1e,4cec65d10acea35dae19deae,KFC,"700 Lawrence Ave W, Toronto ON M6A 3B4",797,-79.447404,43.716572,['Fast Food Restaurant'],6.1,1.0
769a6cb25850b809d38c7a2620731b1e,580b988ad67c230d46bdaa59,Odessa Deli,"372 Marlee Ave (Viewmount Avenue), Toronto ON M6B 3H8",278,-79.443243,43.706989,"['Bakery', 'Deli', 'Dessert Shop']",,1.0
769a6cb25850b809d38c7a2620731b1e,5771bef7498eead2d02911d4,Shahi the Royal Roti,"349 Marlee Ave, Toronto ON M6B 3H9",303,-79.442579,43.706645,['Indian Restaurant'],,2.0
769a6cb25850b809d38c7a2620731b1e,59e3dc2c26659b77af55b973,Lechon Republik,"1 Romar Cres (Marlee Avenue), Toronto ON M6B 1R7",348,-79.442231,43.706221,"['Fast Food Restaurant', 'Filipino Restaurant']",,2.0
769a6cb25850b809d38c7a2620731b1e,4ba359eff964a520bb3638e3,Benner Park,"25 Inlet Mews, Toronto ON",437,-79.43883,43.705739,['Park'],,
5539f3700e4ce9e5701353a667924538,4ada6d8df964a520832221e3,Union Restaurant,"72A Ossington Ave (Queen St. W), Toronto ON M6J 2Y7",23,-79.419262,43.645794,"['French Restaurant', 'New American Restaurant']",9.1,2.0
5539f3700e4ce9e5701353a667924538,53e7ff72498ec1fa4deab5d0,Mamakas Taverna,"80 Ossington Ave, Toronto ON M6J 2Y7",34,-79.41974,43.646152,['Greek Restaurant'],9.0,2.0
5539f3700e4ce9e5701353a667924538,537bd61f498e0dae73728800,Bang Bang Ice Cream & Bakery,"93 1/2 Ossington Ave (btwn Queen and Argyle), Toronto ON M6J 2Z2",62,-79.419425,43.646231,"['Ice Cream Parlor', 'Restaurant']",8.9,2.0
5539f3700e4ce9e5701353a667924538,4f7891c7e4b0b9643b73e08d,Bellwoods Brewery,"124 Ossington Ave (at Argyle St), Toronto ON M6J 2Z5",162,-79.420177,43.647131,"['Bar', 'Brewery', 'Restaurant']",9.3,3.0
5539f3700e4ce9e5701353a667924538,4ad87544f964a520841121e3,Photien Thanh Vietnamese Restaurant,"57 Ossington Ave (at Queen St. W.), Toronto ON M6J 2Y9",24,-79.419079,43.645527,['Vietnamese Restaurant'],8.3,1.0
5539f3700e4ce9e5701353a667924538,564625e8498ed0ce5e3ba2f7,Cafe Neon,"1024 Queen St W (Ossington), Toronto ON M6J 1H6",176,-79.419605,43.644141,"['Café', 'Restaurant']",8.9,1.0
5539f3700e4ce9e5701353a667924538,5cfd2dacbb8d36002cdff2a3,Forno Cultura,"1056 Queen St W, Toronto ON M6J 1H7",226,-79.420806,43.644054,"['Bakery', 'Restaurant']",8.7,1.0
5539f3700e4ce9e5701353a667924538,4af369d0f964a52060ed21e3,Foxley,"207 Ossington Ave (Dundas), Toronto ON M6J 2Z8",339,-79.420333,43.648691,"['Bistro', 'Chinese Restaurant', 'Thai Restaurant']",9.2,2.0
5539f3700e4ce9e5701353a667924538,5d6c625b92ab4500087abc20,Bar Poet,"1090 Queen St W (Dovercourt Road), Toronto ON M6J 1H8",331,-79.422194,43.643672,"['Bar', 'Pizzeria']",9.0,2.0
5539f3700e4ce9e5701353a667924538,4ae86cb3f964a5203eaf21e3,Rua Vang Golden Turtle Restaurant,"125 Ossington Ave (at Argyle St.), Toronto ON M6J 2Z2",137,-79.419569,43.646838,"['Diner', 'Vietnamese Restaurant']",8.3,1.0
fc62f74abe3d79fa430f55f6f56e5e3a,5615b6c4498e3c32c67ad78f,Blaze Pizza,"10 Dundas St E, Toronto ON M5B 2G9",129,-79.380128,43.656609,['Pizzeria'],8.6,1.0
fc62f74abe3d79fa430f55f6f56e5e3a,51755dc7498ece19b7261641,Banh Mi Boys,"399 Yonge St (Gerrard St.), Toronto ON M5B 1S9",220,-79.381956,43.659283,"['Australian Restaurant', 'Sandwich Spot', 'Vietnamese Restaurant']",9.0,1.0
fc62f74abe3d79fa430f55f6f56e5e3a,4ad4c061f964a52095f720e3,Salad King,"340 Yonge St (at Gould St), Toronto ON M5B 1R8",52,-79.381691,43.657618,"['Fast Food Restaurant', 'Thai Restaurant']",8.2,2.0
fc62f74abe3d79fa430f55f6f56e5e3a,4adc9148f964a520512d21e3,Chipotle Mexican Grill,"323 Yonge St (Yonge & Dundas), Toronto ON M5B 1R7",63,-79.380958,43.656829,"['Fast Food Restaurant', 'Mexican Restaurant']",8.2,2.0
fc62f74abe3d79fa430f55f6f56e5e3a,4ab2b0b9f964a520e56b20e3,The Queen and Beaver Public House,"35 Elm St (at Bay St.), Toronto ON M5G 1H1",201,-79.38343,43.65738,"['Bar', 'Gastropub']",8.6,2.0
fc62f74abe3d79fa430f55f6f56e5e3a,5064c3dde4b07c5a18986283,Five Guys Burgers & Fries,"329 Yonge St, Toronto ON M5B 1R7",36,-79.380956,43.65711,"['Burger Joint', 'Fast Food Restaurant']",8.1,2.0
fc62f74abe3d79fa430f55f6f56e5e3a,4ae3398ff964a520ed9121e3,Red Lobster,"20 Dundas St E (at Bay St), Toronto ON M5B 2L6",242,-79.383568,43.656191,"['Diner', 'Seafood Restaurant']",8.3,2.0
fc62f74abe3d79fa430f55f6f56e5e3a,4b2bd898f964a52042bc24e3,Kinka Izakaya,"398 Church St (McGill Street), Toronto ON M5B 2A2",391,-79.378917,43.660458,"['Japanese Restaurant', 'Tapas Restaurant']",8.7,2.0
fc62f74abe3d79fa430f55f6f56e5e3a,557231e3498e540f05f3083c,Tim Hortons,"70 Gerrard St W (Bay St), Toronto ON M5G 1J5",353,-79.385251,43.658539,"['Cafe, Coffee, and Tea House', 'Restaurant']",8.5,1.0
fc62f74abe3d79fa430f55f6f56e5e3a,509e9ef6e4b0ab175389a6c5,Hokkaido Ramen Santouka,"91 Dundas St E (at Church St), Toronto ON M5B 2C8",297,-79.377506,43.656294,['Ramen Restaurant'],8.3,2.0
62a1c39596c3d512dfa04f1d29b81035,4afdfadff964a520a52c22e3,Mezes,"456 Danforth Ave (at Logan Ave.), Toronto ON M4K 1P4",711,-79.350094,43.678038,"['Greek Restaurant', 'Mediterranean Restaurant', 'Tapas Restaurant']",8.6,2.0
62a1c39596c3d512dfa04f1d29b81035,4bce4183ef10952197da8386,Pantheon Restaurant,"407 Danforth Ave (at Chester Ave.), Toronto ON M4K 1P1",786,-79.351411,43.677494,['Greek Restaurant'],8.6,2.0
62a1c39596c3d512dfa04f1d29b81035,502826ffe4b039d48c722f78,Athens Restaurant,"707 Danforth Ave, Toronto ON M4J 1L2",597,-79.343467,43.679022,['Greek Restaurant'],8.2,2.0
62a1c39596c3d512dfa04f1d29b81035,4aeb26cff964a52009bf21e3,The Only Cafe,"972 Danforth Ave (at Donlands Ave), Toronto ON M4J 1L9",833,-79.337798,43.680441,"['Beer Bar', 'Dive Bar', 'Mediterranean Restaurant']",8.5,2.0
62a1c39596c3d512dfa04f1d29b81035,544bee8b498ece3f8ce209fe,Goat Coffee Co,"893 Pape Ave (at Sammon Ave), Toronto ON M4K 3V1",60,-79.346787,43.684621,"['Café', 'Coffee Shop', 'Sandwich Spot']",7.2,1.0
62a1c39596c3d512dfa04f1d29b81035,541ed0a3498e7ff705517bcd,Louis Cifer Brew Works,"417 Danforth Ave (at Chester Ave), Toronto ON M4K 1P1",778,-79.351134,43.677514,"['Brewery', 'Gastropub', 'American Restaurant']",8.0,2.0
62a1c39596c3d512dfa04f1d29b81035,4aeb268bf964a52006bf21e3,Messini Authentic Gyros,"445 Danforth Ave (at Logan Ave), Toronto ON M4K 1P1",746,-79.350411,43.677678,['Greek Restaurant'],7.9,1.0
62a1c39596c3d512dfa04f1d29b81035,4ba56d7bf964a5200b0639e3,Danforth Pizza House,"920 Danforth Ave (Jones), Toronto ON M4J 1L9",784,-79.338761,43.680316,['Pizzeria'],7.8,1.0
62a1c39596c3d512dfa04f1d29b81035,4afefd77f964a5209a3222e3,Square-Boy Drive-In,"875 Danforth Ave (at Jones Ave.), Toronto ON M4J 1L8",749,-79.339431,43.679818,"['Burger Joint', 'Greek Restaurant']",7.7,1.0
62a1c39596c3d512dfa04f1d29b81035,5b959e520a08ab002cf31875,Momo Hut & Gardens,"401 Danforth Ave, Toronto ON M4K 1P1",802,-79.351449,43.677435,"['Bakery', 'Dessert Shop', 'Tibetan Restaurant']",7.8,
487f2f445a917af1d4fecb653ab5323a,4d1e88b7e56f6ea847c9651d,New Orleans Seafood & Steakhouse,"267 Scarlett Rd, Toronto ON M6N 4L1",65,-79.506235,43.677716,['Restaurant'],8.1,
487f2f445a917af1d4fecb653ab5323a,4bfd86544cf820a1bd98ecf4,Smythe Park,"61 Black Creek Blvd, Toronto ON M6N 4K7",908,-79.495982,43.676224,['Park'],7.5,
487f2f445a917af1d4fecb653ab5323a,4b4b1d10f964a520789226e3,Tim Hortons,"895 Jane St (Alliance Ave), North York ON M6N 4C4",907,-79.495516,43.6771,"['Cafe, Coffee, and Tea House', 'Restaurant']",6.5,1.0
487f2f445a917af1d4fecb653ab5323a,4f776eebe4b06ff83639acc2,Jadranka Pastries,"257 Scarlett Rd, York ON M6N 4K9",111,-79.505978,43.677285,"['Bakery', 'Pastry Shop', 'Restaurant']",,1.0
487f2f445a917af1d4fecb653ab5323a,4bb607a3ef159c743c4d75f7,Scarlett Mills Park,Etobicoke ON M9C 2Y2,121,-79.50806,43.678873,['Park'],,
487f2f445a917af1d4fecb653ab5323a,4bd9feebc79cc928adf77ce9,Tim Hortons,"280 Scarlett Rd (at Edenbridge Dr.), Etobicoke ON M9A 4S4",350,-79.509456,43.680848,"['Cafe, Coffee, and Tea House', 'Restaurant']",,1.0
487f2f445a917af1d4fecb653ab5323a,5068e889e4b0bf441b466987,Noble Park,Toronto ON,368,-79.502262,43.677447,['Park'],,
487f2f445a917af1d4fecb653ab5323a,51aa614c498e943d45ce4849,Scarlett Heights Park,"24 Fontenay Crt, Toronto ON",634,-79.511333,43.682619,['Park'],,
487f2f445a917af1d4fecb653ab5323a,4c5f2c1fde6920a194309364,Island Breeze Restaurant,"907 Jane St (Alliance), Toronto ON M6N 4C6",859,-79.49568,43.677537,"['Diner', 'Asian Restaurant', 'Caribbean Restaurant']",,2.0
487f2f445a917af1d4fecb653ab5323a,5e110fb1e8152700075862a1,Subway,"911 Jane St, Toronto ON M6N 4C6",879,-79.495791,43.677642,"['Sandwich Spot', 'Fast Food Restaurant']",,1.0
f1bad47f1bca16159267c0ad3e50fb1a,4e3db8712271d21e86fa9df4,Ranu Thai Cuisine,"3308 Lake Shore Blvd W (Twenty Sixth St), Etobicoke ON M8V 1M4",120,-79.524119,43.596856,['Thai Restaurant'],7.6,2.0
f1bad47f1bca16159267c0ad3e50fb1a,4be57962d4f7c9b607692520,Tatsu's Bread,"3180 Lake Shore Blvd W (Kipling), Etobicoke ON M8V 1L7",376,-79.518448,43.598172,"['Bakery', 'Café', 'Restaurant']",7.7,1.0
f1bad47f1bca16159267c0ad3e50fb1a,4ae8613cf964a520f9ae21e3,Colonel Samuel Smith Park,"3131 Lake Shore Blvd W (at Colonel Samuel Smith Park Dr.), Toronto ON M8V 1L4",1005,-79.515494,43.598671,['Park'],8.8,
f1bad47f1bca16159267c0ad3e50fb1a,52f191cf498e5fafb2edba4c,850 Degrees,"3455 Lake Shore Blvd W, Etobicoke ON M8W 1N2",580,-79.529551,43.595221,['Pizzeria'],7.9,1.0
f1bad47f1bca16159267c0ad3e50fb1a,53695502498e887555d84753,Thrive Organic Kitchen & Cafe,"3473 Lake Shore Blvd W (Thirty First St), Toronto ON M8W 1N5",648,-79.530401,43.59499,"['Café', 'Coffee Shop', 'Restaurant']",7.5,1.0
f1bad47f1bca16159267c0ad3e50fb1a,4c01b5f9b58376b02da5443c,Sloppy Joe's Bar & Grill,"3527 Lake Shore Blvd W (at Thirty Third St.), Toronto ON M8W 1N5",802,-79.532063,43.594586,"['Sports Bar', 'Seafood Restaurant', 'Wings Joint']",7.7,1.0
f1bad47f1bca16159267c0ad3e50fb1a,4c0e791e15c2ef3bcc3c1b08,George the Greek,"3575 Lake Shore Blvd W (Long Branch), Toronto ON M8W 1P5",952,-79.534095,43.594156,['Greek Restaurant'],7.5,2.0
f1bad47f1bca16159267c0ad3e50fb1a,4bb2505d42959c74aaaa202c,Ghazale Restaurant,"3180 Lake Shore Blvd W, Etobicoke ON M8V 1L7",325,-79.518725,43.598152,['Middle Eastern Restaurant'],6.9,2.0
f1bad47f1bca16159267c0ad3e50fb1a,4ba1fb19f964a520b6d437e3,Tim Hortons,"3316 Lakeshore Rd W (26th Street), Etobicoke ON M9W 1M9",180,-79.525116,43.596671,"['Cafe, Coffee, and Tea House', 'Restaurant']",6.0,1.0
f1bad47f1bca16159267c0ad3e50fb1a,4aee8d95f964a52003d421e3,Long Branch Public Library,"3500 Lake Shore Blvd W, Toronto ON M8W 1N6",735,-79.531562,43.595241,['Library'],6.4,
6ac9cdf0b92883715b404d41c779af0b,5a2f13e28ad62e3cdea5e26f,Chubby's Jamaican Kitchen,"104 Portland St (Portland and Adelaide), Toronto ON M5V 2N2",231,-79.400698,43.645461,['Caribbean Restaurant'],8.7,2.0
6ac9cdf0b92883715b404d41c779af0b,57125773498ec1010840bf7a,Forget Me Not Cafe,"506 Adelaide St W, Toronto ON M5V 1T5",224,-79.400843,43.645787,"['Coffee Shop', 'Restaurant']",8.5,1.0
6ac9cdf0b92883715b404d41c779af0b,4dcb3ddefa76d745f0514d24,WVRST,"609 King St W (btwn Bathurst & Portland St), Toronto ON M5V 1M5",248,-79.40054,43.644181,"['Beer Bar', 'Hot Dog Joint', 'German Restaurant']",8.5,2.0
6ac9cdf0b92883715b404d41c779af0b,4d3e1a66457cb60c7ad5fda4,416 Snack Bar,"181 Bathurst St, Toronto ON M5T 2R7",247,-79.403935,43.647583,['Speakeasy'],8.3,2.0
6ac9cdf0b92883715b404d41c779af0b,4b968fd3f964a520dfd434e3,Victoria Memorial Square,"Wellington St W (at Portland St), Toronto ON",419,-79.400289,43.643189,"['Park', 'Sports and Recreation']",8.8,
6ac9cdf0b92883715b404d41c779af0b,4ade77f6f964a5200c7621e3,Terroni,"720 Queen St W (at Claremont St.), Toronto ON M6J 1E8",468,-79.409245,43.646299,['Italian Restaurant'],8.9,2.0
6ac9cdf0b92883715b404d41c779af0b,54256356498edef2967366eb,The Keg,"560 King St W, Toronto ON M5V 0L5",345,-79.399243,43.644837,['Restaurant'],8.4,
6ac9cdf0b92883715b404d41c779af0b,4ae338e1f964a520e39121e3,Le Select Bistro,"432 Wellington St W (at Spadina Ave), Toronto ON M5V 1E3",574,-79.39683,43.643777,"['Wine Bar', 'Bistro', 'French Restaurant']",8.9,2.0
6ac9cdf0b92883715b404d41c779af0b,4ad93053f964a520f21821e3,BarChef,"472 Queen St W (btwn Augusta & Denison), Toronto ON M5V 2B2",401,-79.400236,43.648133,"['Cocktail Bar', 'Lounge', 'Restaurant']",8.4,3.0
6ac9cdf0b92883715b404d41c779af0b,4ad4c05ef964a5208cf620e3,Bovine Sex Club,"542 Queen St W (btwn Bathurst St. & Ryerson Ave.), Toronto ON M5V 2B5",254,-79.402678,43.647618,"['Night Club', 'Dive Bar', 'Restaurant']",8.0,2.0
a385b32a5f6b3de23ce3def7f59ecbc1,4bb942a7cf2fc9b6596ca002,The Keg Steakhouse & Bar,"515 Jarvis St (Wellesley), Toronto ON M4Y 2H7",236,-79.378075,43.666818,['Steakhouse'],8.8,2.0
a385b32a5f6b3de23ce3def7f59ecbc1,4bf46b5c94af2d7f86953a72,The Blake House,"449 Jarvis St, Toronto ON M4Y 2G8",37,-79.377204,43.66468,"['Bar', 'American Restaurant']",8.2,2.0
a385b32a5f6b3de23ce3def7f59ecbc1,5bd2379cbcbf7a0039a2d7b9,Storm Crow Manor,"580 Church St, Toronto ON M4Y 2E5",417,-79.38179,43.666761,"['Bar', 'Theme Restaurant']",9.1,
a385b32a5f6b3de23ce3def7f59ecbc1,4ad887d2f964a520111221e3,Hair of the Dog,"425 Church St (at Wood St.), Toronto ON M4Y 2C3",289,-79.3796,43.66299,"['Gay Bar', 'Gastropub', 'Hot Dog Joint']",8.4,2.0
a385b32a5f6b3de23ce3def7f59ecbc1,4b654efaf964a520aeec2ae3,Black Eagle,"457 Church St (Alexander), Toronto ON M4Y 2C5",240,-79.379979,43.664198,['Gay Bar'],8.3,2.0
a385b32a5f6b3de23ce3def7f59ecbc1,4ad88725f964a5200d1221e3,Woody's,"467 Church St, Toronto ON M4Y 2C5",252,-79.380255,43.664459,"['Gay Bar', 'Restaurant']",8.2,2.0
a385b32a5f6b3de23ce3def7f59ecbc1,4ab17387f964a520866920e3,Churchmouse & Firkin,"475 Church St (at Maitland St.), Toronto ON M4Y 2C5",253,-79.380272,43.66457,"['Pub', 'American Restaurant']",8.2,2.0
a385b32a5f6b3de23ce3def7f59ecbc1,4b17c9f5f964a5202fc823e3,Mr Jerk,"209 Wellesley St E (btwn Bleecker & Ontario), Toronto ON M4X 1G1",421,-79.373303,43.667208,"['American Restaurant', 'Caribbean Restaurant', 'Fast Food Restaurant']",8.7,2.0
a385b32a5f6b3de23ce3def7f59ecbc1,4b5c9a06f964a5202d3929e3,Allan Gardens Conservatory,"19 Horticultural Ave (Carlton & Sherbourne), Toronto ON M5A 2P2",406,-79.374601,43.661837,['Urban Park'],8.6,
a385b32a5f6b3de23ce3def7f59ecbc1,4b2bd898f964a52042bc24e3,Kinka Izakaya,"398 Church St (McGill Street), Toronto ON M5B 2A2",481,-79.378917,43.660458,"['Japanese Restaurant', 'Tapas Restaurant']",8.7,2.0
082fdb9cce172f916dde26cc3a543b69,4ad4c05ef964a520cbf620e3,Steam Whistle Brewing,"255 Bremner Blvd (btwn Rees St. & Simcoe St.), Toronto ON M5V 3M9",37,-79.385267,43.641025,"['Brewery', 'Restaurant']",9.2,1.0
082fdb9cce172f916dde26cc3a543b69,4b642db1f964a520b7a22ae3,Roundhouse Park,"255 Bremner Blvd (at Lower Simcoe St), Toronto ON M5V 3M9",199,-79.38613,43.641748,['Park'],9.3,
082fdb9cce172f916dde26cc3a543b69,5952cf02829b0c59fa430f63,The Rec Room,"255 Bremner Blvd, Toronto ON M5V 3M9",46,-79.394392,43.641092,"['Arcade', 'Bar', 'Restaurant']",8.1,2.0
082fdb9cce172f916dde26cc3a543b69,562922be498e2c6aad0e6091,Evviva Breakfast Restaurant,"25 Lower Simcoe St (Grand Trunk Cresc), Toronto ON M5J 3A1",264,-79.38338,43.641498,['Deli'],8.4,1.0
082fdb9cce172f916dde26cc3a543b69,5346c98a498ed612110d0f60,IQ Food Co,"18 York St (Bremner Ave), Toronto ON M5J 2T8",402,-79.382333,43.643146,"['Wholesaler', 'Salad Restaurant', 'Snack Place', 'Food and Beverage Retail']",8.9,1.0
082fdb9cce172f916dde26cc3a543b69,4b618500f964a52090162ae3,HTO Park,"339 Queens Quay W (at Rees St.), Toronto ON M5V 1A2",407,-79.388654,43.637636,['Park'],8.9,
082fdb9cce172f916dde26cc3a543b69,4ad4c05cf964a520dff520e3,360 Restaurant,"301 Front St W (301 Front St. W), Toronto ON M5V 2T6",114,-79.387233,43.64251,"['Wine Bar', 'Seafood Restaurant', 'Steakhouse']",8.0,3.0
082fdb9cce172f916dde26cc3a543b69,545bef71498eddc2599b086a,SOCO Kitchen + Bar,"75 Lower Simcoe St (Bremner), Toronto ON M5J 3A6",288,-79.383867,43.643091,"['Bistro', 'American Restaurant']",8.2,
082fdb9cce172f916dde26cc3a543b69,5c08474447f876002c736b68,Wvrst Union Station,"65 Front St W, Toronto ON M5J 1E6",576,-79.381397,43.644898,['Beer Bar'],8.9,
082fdb9cce172f916dde26cc3a543b69,4e49413e81dc766f3e3d6312,Harbour Square Park,"25 Queens Dr, Toronto ON M9N 2H3",717,-79.378261,43.639288,['Park'],9.3,
27e30ff4939a3992db39e99af9dfe172,4b11aceaf964a520fd8123e3,Duckworth's Fish & Chips,"2638 Danforth Ave (Main St.), Toronto ON M4C 1L7",334,-79.299857,43.688729,"['Fish and Chips Shop', 'Seafood Restaurant']",7.3,1.0
27e30ff4939a3992db39e99af9dfe172,4d3fb0db7a516ea8fd4cb482,Dentonia Park,"Avonlea Blvd, Toronto ON",391,-79.295177,43.692883,['Park'],7.2,
27e30ff4939a3992db39e99af9dfe172,5a7f1cdcb1ec13211e96d84c,Beach Hill Smokehouse,"172S Main St (Gerrard St E), Toronto ON M4E 2W1",681,-79.300566,43.684018,['BBQ Joint'],7.5,2.0
27e30ff4939a3992db39e99af9dfe172,4c031caa58dad13aff074897,Sultan Shawarma & Falafel,"2558 Danforth Ave (Main St), Toronto ON M4C 1L3",482,-79.30171,43.688315,"['Mediterranean Restaurant', 'Middle Eastern Restaurant', 'Sandwich Spot']",7.2,2.0
27e30ff4939a3992db39e99af9dfe172,4db4a1de0cb6729b6a978664,Tim Hortons,"2480 Gerrard St E (at Victoria Park Ave.), Scarborough ON M1N 4C3",826,-79.286075,43.687359,"['Cafe, Coffee, and Tea House', 'Restaurant']",6.9,1.0
27e30ff4939a3992db39e99af9dfe172,517d4fa2498e8b834ce4696a,Grillies,"2632 Danforth Ave (Barrington Avenue), East York ON M4C 1L7",341,-79.300042,43.688716,"['Greek Restaurant', 'Tex-Mex Restaurant']",6.4,1.0
27e30ff4939a3992db39e99af9dfe172,5077544ee4b07018b528adf9,Subway,"2575 Danforth Ave (at Main St.), Toronto ON M4C 1L5",371,-79.300363,43.688075,"['Sandwich Spot', 'Fast Food Restaurant']",6.3,1.0
27e30ff4939a3992db39e99af9dfe172,4c23fb5cb7b8a59314ce3be8,Popeye's Louisiana Kitchen,"2733 Danforth Ave (at Guest Ave.), Toronto ON M4C 1L8",130,-79.297452,43.688902,"['Diner', 'Fried Chicken Joint', 'Fast Food Restaurant']",5.9,1.0
27e30ff4939a3992db39e99af9dfe172,4bc5ecb1db8fa593976a9b37,Danforth Roti Shop,"2844 Danforth Ave (Dawes Road), Toronto ON M4C 1M1",53,-79.295391,43.689779,"['Diner', 'Caribbean Restaurant', 'Indian Restaurant']",,2.0
27e30ff4939a3992db39e99af9dfe172,5fbd6d465bfc23154be41757,Shola Vegan I Thali,"2768 Danforth Ave, Toronto ON M4C 1L7",97,-79.297022,43.689438,['Thai Restaurant'],,2.0
6d45f03d18059ba5e61f0d44a0cea59d,54713d37498ec7371141032e,Civil Liberties,"878 Bloor St W (at Ossington Ave), Toronto ON M6G 1M5",62,-79.425123,43.662264,['Cocktail Bar'],8.8,3.0
6d45f03d18059ba5e61f0d44a0cea59d,4b896cb7f964a520123532e3,La Bella Managua,"872 Bloor St W, Toronto ON M6G 1M5",82,-79.425086,43.662323,"['French Restaurant', 'Mexican Restaurant', 'South American Restaurant']",8.7,2.0
6d45f03d18059ba5e61f0d44a0cea59d,5b3d62c9270ee7002c7de12e,Paradise Grapevine,"841 Bloor St W (Shaw), Toronto ON M6G 1M3",202,-79.423387,43.662222,['Wine Bar'],8.9,2.0
6d45f03d18059ba5e61f0d44a0cea59d,5a3aa18a5455b26eb31333d2,Filosophy Pastry and Espresso Bar,"912 Bloor St W, Toronto ON M6H 1L1",62,-79.426437,43.662,"['Bakery', 'Café', 'Restaurant']",8.3,1.0
6d45f03d18059ba5e61f0d44a0cea59d,50456a23e4b0a30df06f1391,Tallboys Craft Beer House,"838 Bloor St W (at Shaw St.), Toronto ON M6G 1M2",182,-79.423902,43.662521,"['Pub', 'Restaurant']",8.6,2.0
6d45f03d18059ba5e61f0d44a0cea59d,4adb969ef964a520332921e3,Banjara Indian Cuisine,"796 Bloor St W (at Crawford St), Toronto ON M6G 1L7",335,-79.42181,43.663179,['Indian Restaurant'],8.8,1.0
6d45f03d18059ba5e61f0d44a0cea59d,5a62bde660255e18e3b6de0e,Vit Beo,"858 Bloor St W, Toronto ON M6G 1M2",134,-79.424494,43.662422,['Vietnamese Restaurant'],8.1,2.0
6d45f03d18059ba5e61f0d44a0cea59d,4ae503e0f964a52004a021e3,Comedy Bar,"945B Bloor St W (at Delaware Ave.), Toronto ON M6H 1L5",171,-79.427827,43.661337,"['Comedy Club', 'Lounge', 'Restaurant']",8.2,
6d45f03d18059ba5e61f0d44a0cea59d,55610dcd498e1b69839a65d9,Field Trip Cafe,"3 Westmoreland Ave (Bloor St W), Toronto ON M6H 2Z6",382,-79.430286,43.661214,"['Bakery', 'Beer Bar', 'Café']",8.6,1.0
6d45f03d18059ba5e61f0d44a0cea59d,4b41079ff964a520b0bf25e3,Christie Pits Park,"750 Bloor St W (btw Christie & Crawford), Toronto ON M6G 3K4",504,-79.420709,43.664775,['Park'],9.0,
44bdbe8a2ac75fbe4cc0edf41fe1d4fa,4aee242ef964a52077d221e3,Tabule Restaurant,"2009 Yonge St (Belsize Drive), Toronto ON M4S 1Z8",541,-79.396965,43.700923,"['Middle Eastern Restaurant', 'Moroccan Restaurant']",8.2,2.0
44bdbe8a2ac75fbe4cc0edf41fe1d4fa,4b52a7fdf964a520348527e3,Oriole Park,"201 Oriole Pky (Chaplin Crescent), Toronto ON M5P 2H4",103,-79.399452,43.697149,['Park'],7.4,
44bdbe8a2ac75fbe4cc0edf41fe1d4fa,4ae5077ef964a52018a021e3,St. Louis Bar and Grill,"2050 Yonge St (at Lola Rd.), Toronto ON M4S 1Z9",587,-79.397534,43.701556,"['Sports Bar', 'Restaurant']",7.4,2.0
44bdbe8a2ac75fbe4cc0edf41fe1d4fa,4af9b4eaf964a520891322e3,Bull & Firkin,"1835 Yonge St (at Merton St.), Toronto ON M4S 1X8",339,-79.396089,43.696607,"['Pub', 'Diner']",7.0,1.0
44bdbe8a2ac75fbe4cc0edf41fe1d4fa,4cc9ae6141e75481dff85d84,Flaming Stove,"21 Davisville Ave (at Yonge St.), Toronto ON M4S 1G3",409,-79.395763,43.698371,"['Fast Food Restaurant', 'Indian Restaurant']",7.0,1.0
44bdbe8a2ac75fbe4cc0edf41fe1d4fa,4ad90695f964a520401721e3,Sushi Supreme,"1995 Yonge St (Yonge & Belsize), Toronto ON M4S 1Z8",505,-79.396782,43.700656,['Sushi Restaurant'],7.0,2.0
44bdbe8a2ac75fbe4cc0edf41fe1d4fa,5abe3be1d3cce81e4407f9e5,Zezafoun Syrian Cuisine,"4 Manor Rd E (Yonge St), Toronto ON M4S 1P8",714,-79.397196,43.702367,['Syrian Restaurant'],6.8,
44bdbe8a2ac75fbe4cc0edf41fe1d4fa,4b4f6b9bf964a520d20527e3,Subway,"1910 Yonge St (Davisville), Toronto ON M4S 3B2",348,-79.396963,43.698565,"['Deli', 'Fast Food Restaurant']",6.1,1.0
44bdbe8a2ac75fbe4cc0edf41fe1d4fa,4b9e7b59f964a520bfe736e3,Second Cup Coffee Co,"1881 Yonge St (at Balliol St.), Toronto ON M4S 3C4",350,-79.396267,43.697717,"['Café', 'Coffee Shop', 'Restaurant']",6.1,1.0
44bdbe8a2ac75fbe4cc0edf41fe1d4fa,4af45e30f964a520c3f121e3,Red Lantern Pub,"228 Merton St (Pailton Crescent), Toronto ON M4S 1A1",903,-79.389331,43.697659,"['Bar', 'Gastropub', 'Chinese Restaurant']",6.3,3.0
aa44f34bf848cea7d5570c51697d8ac4,50eb6661e4b0fb08e0dd64cb,Tim Hortons,"3090 Kingston Rd (McCowan Road), Scarborough ON M1M 1P2",1000,-79.231475,43.726635,"['Cafe, Coffee, and Tea House', 'Restaurant']",6.8,1.0
aa44f34bf848cea7d5570c51697d8ac4,4bdca8662a3a0f4757d4b3b6,Working Dog Saloon,"3676 Stclair Ave E, Toronto ON M1M 1T2",980,-79.249742,43.719493,"['Sports Bar', 'Restaurant']",6.5,1.0
aa44f34bf848cea7d5570c51697d8ac4,519d731e498e937ddd96d09b,KFC,"2383 Kingston Rd, Toronto ON M1N 1V1",627,-79.249519,43.723159,"['Fast Food Restaurant', 'Fried Chicken Joint']",6.1,1.0
aa44f34bf848cea7d5570c51697d8ac4,4c952867533aa093f374c645,Pizza Pizza,"2893 Kingston Rd (at Harewood Ave), Scarborough ON M1M 1N3",858,-79.235073,43.722391,"['Pizzeria', 'Fast Food Restaurant']",6.2,1.0
aa44f34bf848cea7d5570c51697d8ac4,571400ac498e7956dba7a960,Royal Congee Chinese Cuisine,"4 Greystone Walk Dr, Scarborough ON M1K 5J2",785,-79.252558,43.724628,['Chinese Restaurant'],,1.0
aa44f34bf848cea7d5570c51697d8ac4,4b928f1bf964a5203e0434e3,McDonald's,"2 Greystone Walk Dr (at Midland Ave), Toronto ON M1K 5J2",813,-79.253501,43.724673,"['Burger Joint', 'Fast Food Restaurant']",5.5,1.0
aa44f34bf848cea7d5570c51697d8ac4,4c2bcdf18ef52d7f16fc31ba,Big Boys Burgers,"2851A Kingston Rd, Scarborough ON M1M 1N2",848,-79.23608,43.721646,['Restaurant'],,1.0
aa44f34bf848cea7d5570c51697d8ac4,5d550aa5a3ebae00074e3817,One Jerk,"2859 Kingston Rd, Scarborough ON M1M 1N3",865,-79.235522,43.721966,['Restaurant'],,
aa44f34bf848cea7d5570c51697d8ac4,4eeb68370039490c7d3ddb9d,Double Double Pizza & Chicken,"2829 Kingston Rd, Scarborough ON M1M 1N2",873,-79.236399,43.721286,['Pizzeria'],,1.0
aa44f34bf848cea7d5570c51697d8ac4,4eac648be3000d1f064b77b4,Wild Wing,"2819 Kingston Rd, Scarborough ON M1M 1N2",879,-79.236382,43.721175,"['Fast Food Restaurant', 'Wings Joint']",,1.0
5ee5f79fc51737623d425310eb0bf02b,4b15383bf964a52079a923e3,Capocaccia Cafe,"1366 Yonge St (Balmoral Ave.), Toronto ON M4T 3A7",595,-79.393409,43.685963,"['Bistro', 'Pizzeria', 'Italian Restaurant']",8.0,3.0
5ee5f79fc51737623d425310eb0bf02b,4af59dcdf964a5205efa21e3,Toronto Public Library,"40 St Clair Ave E (at Yonge St.), Toronto ON M4T 1M9",342,-79.392502,43.68878,['Library'],7.6,
5ee5f79fc51737623d425310eb0bf02b,52acedc011d2bf5586251c3c,Union Social Eatery,"21 Saint Clair Ave W, Toronto ON M4V 1K6",354,-79.39495,43.687704,"['Burger Joint', 'American Restaurant']",7.5,2.0
5ee5f79fc51737623d425310eb0bf02b,4bc0d290920eb713dda1192c,Rosehill Reservoir,"75 Rosehill Ave, Toronto ON",785,-79.388544,43.68626,['Park'],8.0,
5ee5f79fc51737623d425310eb0bf02b,4bf031dcf831c928eab401f2,David A. Balfour Park,"200 Mount Pleasant Rd, Toronto ON M4T 2C4",840,-79.388253,43.685607,"['Park', 'Sports and Recreation']",7.8,
5ee5f79fc51737623d425310eb0bf02b,59f2a6423b83077c097bb5b6,Mermaid Fish and Grill House,"44 St Clair Ave E, Toronto ON M4T 1M9",374,-79.392206,43.68869,"['Fish and Chips Shop', 'Seafood Restaurant']",7.2,3.0
5ee5f79fc51737623d425310eb0bf02b,4b52a7fdf964a520348527e3,Oriole Park,"201 Oriole Pky (Chaplin Crescent), Toronto ON M5P 2H4",742,-79.399452,43.697149,['Park'],7.4,
5ee5f79fc51737623d425310eb0bf02b,56998f0d498eb2bf8d10cd06,Barnsteiner's,"1 Balmoral Ave (at Yonge St), Toronto ON M4V 3B9",601,-79.393411,43.685682,"['Eastern European Restaurant', 'Modern European Restaurant']",7.1,
5ee5f79fc51737623d425310eb0bf02b,4af9b4eaf964a520891322e3,Bull & Firkin,"1835 Yonge St (at Merton St.), Toronto ON M4S 1X8",616,-79.396089,43.696607,"['Pub', 'Diner']",7.0,1.0
5ee5f79fc51737623d425310eb0bf02b,4cc9ae6141e75481dff85d84,Flaming Stove,"21 Davisville Ave (at Yonge St.), Toronto ON M4S 1G3",801,-79.395763,43.698371,"['Fast Food Restaurant', 'Indian Restaurant']",7.0,1.0
76ff77a0c8d2de7ff02ab1ce2b719e22,4a8355bff964a520d3fa1fe3,Mercatto,"101 College St, Toronto ON M5G 1L7",242,-79.388642,43.659865,['Italian Restaurant'],8.3,3.0
76ff77a0c8d2de7ff02ab1ce2b719e22,557231e3498e540f05f3083c,Tim Hortons,"70 Gerrard St W (Bay St), Toronto ON M5G 1J5",415,-79.385251,43.658539,"['Cafe, Coffee, and Tea House', 'Restaurant']",8.5,1.0
76ff77a0c8d2de7ff02ab1ce2b719e22,5a6b737b35f98359eed11974,The Library Specialty Coffee,"281 Dundas St W (St Patrick And Dundas St W), Toronto ON M5T 1G1",537,-79.390843,43.654316,"['Coffee Shop', 'Restaurant']",8.9,1.0
76ff77a0c8d2de7ff02ab1ce2b719e22,4b9d206bf964a520e69136e3,Queen's Park,"111 Wellesley St W (at Wellesley Ave.), Toronto ON M7A 1A5",547,-79.392075,43.663742,['Park'],8.7,
76ff77a0c8d2de7ff02ab1ce2b719e22,51755dc7498ece19b7261641,Banh Mi Boys,"399 Yonge St (Gerrard St.), Toronto ON M5B 1S9",664,-79.381956,43.659283,"['Australian Restaurant', 'Sandwich Spot', 'Vietnamese Restaurant']",9.0,1.0
76ff77a0c8d2de7ff02ab1ce2b719e22,4ab2b0b9f964a520e56b20e3,The Queen and Beaver Public House,"35 Elm St (at Bay St.), Toronto ON M5G 1H1",571,-79.38343,43.65738,"['Bar', 'Gastropub']",8.6,2.0
76ff77a0c8d2de7ff02ab1ce2b719e22,52d884c5498ecf5c7cafe5ab,Nando's Peri-Peri,"832 Bay St (Grenville St), Toronto ON M5S 1Z6",414,-79.386521,43.661815,['Portuguese Restaurant'],8.2,2.0
76ff77a0c8d2de7ff02ab1ce2b719e22,5d782433f6e3190008b1a914,Gyubee Japanese Grill,"157 Dundas St W, Toronto ON M5E 1B4",602,-79.385793,43.655187,['Japanese Restaurant'],8.3,2.0
76ff77a0c8d2de7ff02ab1ce2b719e22,5773f01f498e98371390bdfd,Rolltation,"207 Dundas St W (at University Ave), Toronto ON M5G 1C8",528,-79.387496,43.654727,"['Fast Food Restaurant', 'Sushi Restaurant']",8.1,2.0
76ff77a0c8d2de7ff02ab1ce2b719e22,4ae3398ff964a520ed9121e3,Red Lobster,"20 Dundas St E (at Bay St), Toronto ON M5B 2L6",620,-79.383568,43.656191,"['Diner', 'Seafood Restaurant']",8.3,2.0
a3246dc710b72e282aabc15520392d98,4c2bca5a6e77b7135b30775d,Taylor Creek Park,"200 Dawes Rd (at Crescent Town Rd.), Toronto ON M4C 5M8",718,-79.306518,43.696561,['Park'],8.9,
a3246dc710b72e282aabc15520392d98,5000b633e4b0ebdd7256ffbb,Thai Room,"2063 Danforth Ave (Woodbine), Toronto ON M4C 1J8",846,-79.313183,43.685414,['Thai Restaurant'],7.0,2.0
a3246dc710b72e282aabc15520392d98,4b0b064ff964a520bc2b23e3,Pizza Pizza,"2077 Danforth Ave (at Woodbine Ave), Toronto ON M4C 1J8",852,-79.312868,43.685492,"['Pizzeria', 'Fast Food Restaurant']",6.8,1.0
a3246dc710b72e282aabc15520392d98,4c012a56efa2ef3b516daa8c,Stan Wadlow Park,"373 Cedarvale Ave (at Cosburn Ave.), Toronto ON M4C 4K7",516,-79.314421,43.698015,['Park'],6.3,
a3246dc710b72e282aabc15520392d98,5d34d6dfe57689000792bf15,Hakka Fire,"1235 Woodbine Ave (Lumsden Avenue), Toronto ON M4C 4E5",125,-79.315759,43.693145,['Hakka Restaurant'],,
a3246dc710b72e282aabc15520392d98,4f3bc224e4b0c533fa75301b,Subway,"825 Coxwell Ave (in Toronto East General Hospital), Toronto ON M4C 3E7",934,-79.324903,43.690017,"['Deli', 'Fast Food Restaurant']",6.4,1.0
a3246dc710b72e282aabc15520392d98,4dbf46c41e72dd48b1ef56ef,Oak Park Deli,"213 Oak Park Ave, Toronto ON M4C 4N2",331,-79.31015,43.693773,"['Restaurant', 'Deli']",,1.0
a3246dc710b72e282aabc15520392d98,4e35c5692271b2cf067b9bf5,Gledhill Park,"125 Gledhill Ave, Toronto ON M4C 5K7",434,-79.309992,43.690696,['Playground'],,
a3246dc710b72e282aabc15520392d98,4c5d873d6147be9a99349209,Epsom Park,,445,-79.309417,43.690906,['Park'],,
a3246dc710b72e282aabc15520392d98,4f06228c6da1a1d64abadb0c,TTC Stop,"Woodbine Ave (at Cosburn Ave.), Toronto ON",452,-79.317745,43.69654,['Bus Stop'],,
9447917367c25ac832d404c1a4696615,4ad772faf964a520a70a21e3,The Keg Steakhouse + Bar,"2201 Yonge St (at Eglinton Ave), Toronto ON M4S 2B2",303,-79.397893,43.705855,['Restaurant'],8.4,3.0
9447917367c25ac832d404c1a4696615,4aee242ef964a52077d221e3,Tabule Restaurant,"2009 Yonge St (Belsize Drive), Toronto ON M4S 1Z8",235,-79.396965,43.700923,"['Middle Eastern Restaurant', 'Moroccan Restaurant']",8.2,2.0
9447917367c25ac832d404c1a4696615,5977834ba2a6ce21c60fe91e,Kinton Ramen,"90 Eglinton Ave E, Toronto ON M4P 2Y3",509,-79.395735,43.707584,['Ramen Restaurant'],8.2,
9447917367c25ac832d404c1a4696615,521e0c6c04939a8ad55d93d3,Fresh,"90 Eglinton Ave E (Yonge & Eglinton), Toronto ON M4P 2Y3",517,-79.395772,43.707525,['Vegan and Vegetarian Restaurant'],8.2,2.0
9447917367c25ac832d404c1a4696615,4ad4c061f964a520a2f720e3,Grazie Ristorante,"2373 Yonge St, Toronto ON M4P 2C8",710,-79.398738,43.709388,['Italian Restaurant'],8.4,2.0
9447917367c25ac832d404c1a4696615,5fc4397fdc8b462813985533,Pai Uptown,"2335 Yonge St, Toronto ON M4P 2C8",622,-79.398978,43.708515,['Thai Restaurant'],8.1,2.0
9447917367c25ac832d404c1a4696615,51819802498ee3c6834b8e0b,De Mello Palheta Coffee Roasters,"2489 Yonge St (Erksine Ave), Toronto ON M4P 2H6",987,-79.399275,43.711877,"['Café', 'Coffee Shop', 'Restaurant']",8.6,2.0
9447917367c25ac832d404c1a4696615,4aecffb0f964a520a3cc21e3,La Vecchia Ristorante,"2405A Yonge St (btwn Broadway & Erskine Ave.), Toronto ON M4P 2E7",805,-79.398862,43.710165,['Italian Restaurant'],8.2,4.0
9447917367c25ac832d404c1a4696615,4ae5077ef964a52018a021e3,St. Louis Bar and Grill,"2050 Yonge St (at Lola Rd.), Toronto ON M4S 1Z9",158,-79.397534,43.701556,"['Sports Bar', 'Restaurant']",7.4,2.0
9447917367c25ac832d404c1a4696615,558b50e1498eb7bbde2fa5c5,Cibo Wine Bar,"2472 Yonge St (at Castlefield Ave), Toronto ON M4P 2H5",953,-79.399575,43.711405,['Italian Restaurant'],8.3,2.0
71bf1ff10731929ec44b9dcce72edba6,4b9fe242f964a520614737e3,Caribbean Heat Family Restaurant,"1300 Finch Ave W (Keele), Toronto ON M3J 3K2",887,-79.489886,43.764763,['Caribbean Restaurant'],7.4,2.0
71bf1ff10731929ec44b9dcce72edba6,4b87e845f964a5203dd231e3,Tim Hortons,"1275 Finch Ave W (Keele St.), North York ON M3J 0L5",1002,-79.488832,43.764335,"['Cafe, Coffee, and Tea House', 'Restaurant']",7.1,1.0
71bf1ff10731929ec44b9dcce72edba6,4c5a0b8704f9be9af6f4f060,Tim Hortons,"1493 Finch Ave W (Sentinel Rd), North York ON M3J 2G7",413,-79.499276,43.760814,"['Cafe, Coffee, and Tea House', 'Restaurant']",6.6,1.0
71bf1ff10731929ec44b9dcce72edba6,59f0d01ff62e095890223406,Subway,"105 the Pond Rd, North York ON M3J 0K9",648,-79.501771,43.769848,"['Deli', 'Fast Food Restaurant']",6.5,1.0
71bf1ff10731929ec44b9dcce72edba6,53519763498e47e697942d9a,Subway,"1300 Finch Ave W, Toronto ON M3J 3K2",932,-79.489591,43.764391,"['Deli', 'Fast Food Restaurant']",6.4,1.0
71bf1ff10731929ec44b9dcce72edba6,60918f68298fa23bd0a742df,El Jefe de Pollo,"3585 Keele St (Finch), Toronto ON M3J 3H5",199,-79.499136,43.763128,['Fried Chicken Joint'],,1.0
71bf1ff10731929ec44b9dcce72edba6,4e9ba1e9c2eee2a699c5722e,Fountainhead Park,North York ON,228,-79.499342,43.762664,['Park'],,
71bf1ff10731929ec44b9dcce72edba6,4b5dcf7bf964a520316d29e3,Tim Hortons,"70 the Pond Rd (Seneca@York Campus), Toronto ON M3J 3M6",883,-79.499927,43.772064,"['Cafe, Coffee, and Tea House', 'Restaurant']",6.2,1.0
71bf1ff10731929ec44b9dcce72edba6,57c565d1498e511ed9c27695,Pizza Pizza,"1300 Finch Ave W, Toronto ON M3J 3K2",924,-79.489978,43.764756,"['Pizzeria', 'Fast Food Restaurant']",6.1,1.0
71bf1ff10731929ec44b9dcce72edba6,4cfd2766084f548161e68909,TTC Stop,"391 Sentinel Rd (Finch), Toronto ON M3J 1V4",387,-79.499387,43.760918,['Bus Stop'],,
7a666ee6c60a7f8ffec9334924d36c6a,4ae338e1f964a520e39121e3,Le Select Bistro,"432 Wellington St W (at Spadina Ave), Toronto ON M5V 1E3",204,-79.39683,43.643777,"['Wine Bar', 'Bistro', 'French Restaurant']",8.9,2.0
7a666ee6c60a7f8ffec9334924d36c6a,4fcc0dd177167574f0de38d5,Bar Hop,"391 King St W (at Charlotte St), Toronto ON M5V 1K1",292,-79.393658,43.645579,"['Beer Bar', 'Restaurant']",8.8,2.0
7a666ee6c60a7f8ffec9334924d36c6a,4b968fd3f964a520dfd434e3,Victoria Memorial Square,"Wellington St W (at Portland St), Toronto ON",426,-79.400289,43.643189,"['Park', 'Sports and Recreation']",8.8,
7a666ee6c60a7f8ffec9334924d36c6a,4ad4c05ef964a520cbf620e3,Steam Whistle Brewing,"255 Bremner Blvd (btwn Rees St. & Simcoe St.), Toronto ON M5V 3M9",597,-79.385267,43.641025,"['Brewery', 'Restaurant']",9.2,1.0
7a666ee6c60a7f8ffec9334924d36c6a,54256356498edef2967366eb,The Keg,"560 King St W, Toronto ON M5V 0L5",441,-79.399243,43.644837,['Restaurant'],8.4,
7a666ee6c60a7f8ffec9334924d36c6a,589fafe634935555b0fa6c35,Khao San Road,"11 Charlotte St (King St. W), Toronto ON M5V 0M6",366,-79.393894,43.64618,['Thai Restaurant'],8.2,2.0
7a666ee6c60a7f8ffec9334924d36c6a,5321f4d9e4b07946702e6e08,Byblos,"11 Duncan St (at Pearl St), Toronto ON M5V 3M2",690,-79.38826382160187,43.647449600777314,['Mediterranean Restaurant'],9.3,2.0
7a666ee6c60a7f8ffec9334924d36c6a,4edeae9d61af80fe89aa3f54,Banh Mi Boys,"392 Queen St W, Toronto ON M5V 2A6",658,-79.396924,43.648766,"['Korean Restaurant', 'Sandwich Spot', 'Vietnamese Restaurant']",9.0,1.0
7a666ee6c60a7f8ffec9334924d36c6a,5a2f13e28ad62e3cdea5e26f,Chubby's Jamaican Kitchen,"104 Portland St (Portland and Adelaide), Toronto ON M5V 2N2",568,-79.400698,43.645461,['Caribbean Restaurant'],8.7,2.0
7a666ee6c60a7f8ffec9334924d36c6a,529612de11d2ab526191ccc9,Pai,"18 Duncan St (at Adelaide St W), Toronto ON M5H 3G8",712,-79.388636,43.647796,['Thai Restaurant'],9.3,2.0
df05fe5ca5c71ce120962deaac85c1fa,4ad4c061f964a520a5f720e3,Scaramouche Restaurant Pasta Bar & Grill,"1 Benvenuto Pl (at Edmund Ave.), Toronto ON M4V 2L1",383,-79.399801,43.681456,['French Restaurant'],8.6,4.0
df05fe5ca5c71ce120962deaac85c1fa,618dc35b3dd8160ca944ac3b,MIMI Chinese,"265 Davenport Rd, Toronto ON M5R 1J9",381,-79.39828,43.674267,['Chinese Restaurant'],8.2,1.0
df05fe5ca5c71ce120962deaac85c1fa,5282572111d2f33612220715,Boxcar Social,"1208 Yonge St (Summerhill), Toronto ON M4T 1W1",698,-79.391609,43.681714,"['Wine Bar', 'Coffee Shop', 'Restaurant']",9.0,2.0
df05fe5ca5c71ce120962deaac85c1fa,4ad88fa9f964a520511221e3,Black Camel,"4 Crescent Rd (Yonge), Toronto ON M4W 1S9",730,-79.389423,43.6771,"['BBQ Joint', 'Coffee Shop', 'Chinese Restaurant']",9.0,2.0
df05fe5ca5c71ce120962deaac85c1fa,4af6de52f964a520b20322e3,Ramsden Park,"1 Ramsden Rd (Yonge Street), Toronto ON M6E 2N1",726,-79.390004,43.676047,['Park'],8.5,
df05fe5ca5c71ce120962deaac85c1fa,4b086bf3f964a520800b23e3,Le Paradis Brasserie Bistro,"166 Bedford Rd (Dupont St), Toronto ON M5R 2K9",352,-79.400086,43.675034,"['Bistro', 'French Restaurant']",7.8,4.0
df05fe5ca5c71ce120962deaac85c1fa,4bba7d86cf2fc9b62ba6a102,Summer's Sweet Memories Inc,"101 Yorkville Ave (west of Bellair St.), Toronto ON M5R 1C1",921,-79.392297,43.670771,"['Ice Cream Parlor', 'Restaurant']",8.8,1.0
df05fe5ca5c71ce120962deaac85c1fa,4af30f13f964a52030ea21e3,Trattoria Nervosa,"75 Yorkville Ave (at Bellair St.), Toronto ON M5R 1B8",966,-79.390983,43.671035,['Italian Restaurant'],8.9,3.0
df05fe5ca5c71ce120962deaac85c1fa,4ad4c05cf964a5200df620e3,The Rosedale Diner,"1164 Yonge St, Toronto ON M4W 2L9",667,-79.391119,43.680402,"['Wine Bar', 'Restaurant']",8.1,2.0
df05fe5ca5c71ce120962deaac85c1fa,5b720ce2e17910002c42733f,Alobar Yorkville,"162 Cumberland St, Toronto ON M5R 3N5",926,-79.393615,43.669946,['Restaurant'],8.3,
e4481e45d22462b01aca9513d8f5674e,4bc8c23b92b376b0ad21523a,Sunnyside Park,"1755 Lake Shore Blvd W (at Colborne Lodge Dr.), Toronto ON M6S 5A3",562,-79.45644,43.637747,['Park'],9.1,
e4481e45d22462b01aca9513d8f5674e,4adf2fb8f964a520267821e3,Cheese Boutique,"45 Ripley Ave (South Kingsway), Toronto ON M6S 3P2",721,-79.475109,43.638456,['Deli'],9.0,3.0
e4481e45d22462b01aca9513d8f5674e,4b93eb6ff964a520d15934e3,Sir Casimir Gzowski Park,"1751 Lake Shore Blvd W, Toronto ON M6S 5A3",201,-79.465816,43.635601,['Park'],7.2,
e4481e45d22462b01aca9513d8f5674e,4d98d91eb188721e4ef03137,Humber Marshes,"24 South Kingsway, Toronto ON",216,-79.470193,43.635505,['Park'],,
e4481e45d22462b01aca9513d8f5674e,5238ea57498ef96b339a9e40,Martin Goodman Trail Dog Park,Toronto ON,237,-79.470332,43.633755,['Dog Park'],,
e4481e45d22462b01aca9513d8f5674e,53c96b0e498e709f53c27983,Sunnyside Bike Park,"3 Ellis Gdns (Ellis Ave), Toronto ON",280,-79.465421,43.636921,"['Park', 'Sports and Recreation']",,
e4481e45d22462b01aca9513d8f5674e,632c650c7df9272d87bf286e,Palace Pier Park,Toronto ON M8V 2Z6,564,-79.473647,43.631996,['Park'],,
e4481e45d22462b01aca9513d8f5674e,4b2d7c3ef964a520a6d724e3,Palace Pier,"2045 Lake Shore Blvd W, Toronto ON M8V 2Z6",657,-79.4745,43.631485,"['Office Building', 'Restaurant']",,
e4481e45d22462b01aca9513d8f5674e,4f8a0462e4b0cec3abcfb25d,Palace Pier Rooftop Club,"2045 Lakeshore Blvd W, Toronto ON M8V 2Z6",658,-79.474434,43.631465,['Cocktail Bar'],,3.0
e4481e45d22462b01aca9513d8f5674e,646027c0ddc0d92a4aff7c0c,Veloute,"Palace Pier Crt, Toronto ON M8V 3W9",708,-79.474504,43.630642,['French Restaurant'],,3.0
3754aff9599513c7ba4e4649ea3818dd,4b5c9a06f964a5202d3929e3,Allan Gardens Conservatory,"19 Horticultural Ave (Carlton & Sherbourne), Toronto ON M5A 2P2",165,-79.374601,43.661837,['Urban Park'],8.6,
3754aff9599513c7ba4e4649ea3818dd,4b2bd898f964a52042bc24e3,Kinka Izakaya,"398 Church St (McGill Street), Toronto ON M5B 2A2",273,-79.378917,43.660458,"['Japanese Restaurant', 'Tapas Restaurant']",8.7,2.0
3754aff9599513c7ba4e4649ea3818dd,4ad887d2f964a520111221e3,Hair of the Dog,"425 Church St (at Wood St.), Toronto ON M4Y 2C3",293,-79.3796,43.66299,"['Gay Bar', 'Gastropub', 'Hot Dog Joint']",8.4,2.0
3754aff9599513c7ba4e4649ea3818dd,4ae4a9baf964a520e69c21e3,Chew Chew's Diner,"186 Carlton St (Bleeker St.), Toronto ON M5A 2K6",354,-79.372426,43.663454,"['Diner', 'American Restaurant', 'Mediterranean Restaurant']",8.4,1.0
3754aff9599513c7ba4e4649ea3818dd,51755dc7498ece19b7261641,Banh Mi Boys,"399 Yonge St (Gerrard St.), Toronto ON M5B 1S9",557,-79.381956,43.659283,"['Australian Restaurant', 'Sandwich Spot', 'Vietnamese Restaurant']",9.0,1.0
3754aff9599513c7ba4e4649ea3818dd,4bf46b5c94af2d7f86953a72,The Blake House,"449 Jarvis St, Toronto ON M4Y 2G8",286,-79.377204,43.66468,"['Bar', 'American Restaurant']",8.2,2.0
3754aff9599513c7ba4e4649ea3818dd,4bb942a7cf2fc9b6596ca002,The Keg Steakhouse & Bar,"515 Jarvis St (Wellesley), Toronto ON M4Y 2H7",548,-79.378075,43.666818,['Steakhouse'],8.8,2.0
3754aff9599513c7ba4e4649ea3818dd,4b654efaf964a520aeec2ae3,Black Eagle,"457 Church St (Alexander), Toronto ON M4Y 2C5",387,-79.379979,43.664198,['Gay Bar'],8.3,2.0
3754aff9599513c7ba4e4649ea3818dd,5bd2379cbcbf7a0039a2d7b9,Storm Crow Manor,"580 Church St, Toronto ON M4Y 2E5",686,-79.38179,43.666761,"['Bar', 'Theme Restaurant']",9.1,
3754aff9599513c7ba4e4649ea3818dd,4ad88725f964a5200d1221e3,Woody's,"467 Church St, Toronto ON M4Y 2C5",424,-79.380255,43.664459,"['Gay Bar', 'Restaurant']",8.2,2.0
05d7abba295be4af9e74ca3ec241ebd7,4bae1ed7f964a520ba863be3,Kew Gardens,"2075 Queen St E (btwn Waverly Rd. & Lee Ave.), Toronto ON M4L 1J1",413,-79.298612,43.669225,['Playground'],8.8,
05d7abba295be4af9e74ca3ec241ebd7,4f5a855be4b0a4baa1ae0063,Tori's Bakeshop,"2188 Queen St E (Balsam Ave), Toronto ON M4E 1E6",346,-79.290433,43.672225,"['Bakery', 'Vegan and Vegetarian Restaurant']",8.4,2.0
05d7abba295be4af9e74ca3ec241ebd7,4b37c839f964a5200e4625e3,Ed's Real Scoop,"2224 Queen St E (btwn Spruce Hill & Beech), Toronto ON M4E 1E9",542,-79.287988,43.672737,"['Ice Cream Parlor', 'Fast Food Restaurant']",8.4,2.0
05d7abba295be4af9e74ca3ec241ebd7,4ae33773f964a520ca9121e3,Beacher Cafe,"2162 Queen St E (Maclean Ave), Toronto ON M4E 1E4",271,-79.291248,43.672055,"['Diner', 'American Restaurant']",7.7,2.0
05d7abba295be4af9e74ca3ec241ebd7,51e2a41f498ec07b5f39be58,Bagels on Fire,"2248 Queen St E, Toronto ON M4E 1G2",643,-79.286673,43.673,"['Bagel Shop', 'Bakery', 'Fast Food Restaurant']",8.1,1.0
05d7abba295be4af9e74ca3ec241ebd7,4b58eeb6f964a520e37328e3,Delina Restaurant,"1891 Queen St E (Woodbine), Toronto ON M4L 1H3",918,-79.305309,43.668688,['Middle Eastern Restaurant'],8.4,2.0
05d7abba295be4af9e74ca3ec241ebd7,4cb32a6539458cfaaf5a18a0,Kew Gardens Play Park,,475,-79.29976,43.669086,['Park'],7.6,
05d7abba295be4af9e74ca3ec241ebd7,5aa5509cbed48336116ed8a8,Green Eggplant Mediterranean Grill,"2022 Queen St E, Toronto ON M4L 1J4",346,-79.298712,43.670453,['Mediterranean Restaurant'],7.4,2.0
05d7abba295be4af9e74ca3ec241ebd7,4adb78e8f964a520d82721e3,Green Basil,"2120 Queen St E (Hammersmith Ave), Toronto ON M4E 1E2",23,-79.29473,43.6713,['Thai Restaurant'],7.0,2.0
05d7abba295be4af9e74ca3ec241ebd7,51fd37b5498e5b11f3af7068,Xola,"2222A Queen St E, Toronto ON M4E 1H2",535,-79.288025,43.672679,['Mexican Restaurant'],7.6,1.0
93727b82ed700768aa9695d49140f6b3,57f05582498e757718084460,Rebel,"11 Polson St, Toronto ON M5A 1A4",130,-79.354733,43.640935,"['Night Club', 'Bar']",8.5,
93727b82ed700768aa9695d49140f6b3,5776b4b3498eb9700db1b69a,Cherry Street Bar-B-Que,"275 Cherry St (Commissioners St), Toronto ON M5A 3L3",460,-79.352332,43.645542,"['Bar', 'BBQ Joint', 'Steakhouse']",8.1,2.0
93727b82ed700768aa9695d49140f6b3,4b0fd7eaf964a520626523e3,Cherry Beach Off-Leash Dog Area,"Foot of Cherry St, Toronto ON",952,-79.344274,43.636864,['Dog Park'],8.9,
93727b82ed700768aa9695d49140f6b3,4adb58f7f964a520412621e3,Balzac's Coffee Roastery,"55 Mill St (at Distillery Ln.), Toronto ON M5A 3C4",992,-79.359096,43.64988,"['Café', 'Coffee Shop', 'Restaurant']",8.6,2.0
93727b82ed700768aa9695d49140f6b3,51bc9841498e60d2c95153d0,Cabana Pool Bar,"11 Polson St, Toronto ON M5A 1A4",189,-79.354771,43.640876,"['Arts and Entertainment', 'Lounge']",7.4,
93727b82ed700768aa9695d49140f6b3,4ad4c061f964a520aff720e3,Polson Pier,"11 Polson St, Toronto ON M5A 1A4",76,-79.354456,43.640955,"['Movie Theater', 'Bar']",7.2,
93727b82ed700768aa9695d49140f6b3,4c9cb55446978cfabd58907f,Sherbourne Common,"Lower Sherbourne St (at Queens Quay E), Toronto ON M5A 1B4",973,-79.364858,43.645534,['Park'],7.9,
93727b82ed700768aa9695d49140f6b3,4e35f15c8877beb5e9b1b716,Jennifer Kateryna Koval's'kyj Park,"2 Polson St, Toronto ON",80,-79.354529,43.641118,"['Park', 'Sports and Recreation']",6.6,
93727b82ed700768aa9695d49140f6b3,60c2a628032634396a61eacf,Popeye's Louisiana Kitchen,"12 Bonnycastle St, Toronto ON M5A 0C8",955,-79.364635,43.645607,['Fast Food Restaurant'],6.5,1.0
93727b82ed700768aa9695d49140f6b3,4c1b84bc8b3aa5931248975f,The Docks,"11 Polson St, Toronto ON M5A 1A4",64,-79.353824,43.641393,['Bar'],,2.0
4458cd04d9fb8c770ac4bae9d9db2d63,4c8ff3075fdf6dcb0f982c91,Babos Donerpoint,"2216 Eglinton Ave W (at Caledonia Rd), Toronto ON M6E 2L1",99,-79.461873,43.693327,"['Diner', 'Falafel Restaurant', 'Turkish Restaurant']",8.0,1.0
4458cd04d9fb8c770ac4bae9d9db2d63,4aedafd1f964a52025ce21e3,Commisso Bros & Racco Italian Bakery,"8 Kincort St (Castlefield and Kincort), Toronto ON M6M 3E1",724,-79.468582,43.697497,"['Bakery', 'Italian Restaurant']",7.7,2.0
4458cd04d9fb8c770ac4bae9d9db2d63,4c05742c517d0f472d90f415,KFC,"2296 Eglinton Ave E, Toronto ON M1K 2M2",81,-79.463688,43.692969,['Fast Food Restaurant'],5.8,1.0
4458cd04d9fb8c770ac4bae9d9db2d63,4bc6f7fe8b7c9c74748d35cf,Tim Hortons,"815 Caledonia Rd, Toronto ON M6B 3X8",981,-79.463771,43.701332,"['Cafe, Coffee, and Tea House', 'Restaurant']",6.5,1.0
4458cd04d9fb8c770ac4bae9d9db2d63,4e9491ce9adf645ac37f3fdc,Lavrador Bbq,"2188 Eglinton Ave W, York ON M6E 2L1",121,-79.461374,43.69342,"['BBQ Joint', 'Steakhouse']",,2.0
4458cd04d9fb8c770ac4bae9d9db2d63,591b7475b9ac384466dc6fb0,Pizza Hut,"1862 Eglinton Ave W, Toronto ON M6E 2J4",961,-79.45143,43.695607,"['Pizzeria', 'Fast Food Restaurant']",6.3,1.0
4458cd04d9fb8c770ac4bae9d9db2d63,5143b746e4b0ff6e207da7e4,Subway,"2597 Eglinton Ave W (at Yarrow Rd.), Toronto ON M6M 1T3",946,-79.474058,43.690244,"['Sandwich Spot', 'Fast Food Restaurant']",6.2,1.0
4458cd04d9fb8c770ac4bae9d9db2d63,5f36ee352eb73d3c905411d5,Casa Portuguesa,"682 Caledonia Rd, Toronto ON M6E 4V9",476,-79.463573,43.696909,['Portuguese Restaurant'],,2.0
4458cd04d9fb8c770ac4bae9d9db2d63,4bba01e998c7ef3b058f3202,Bert Robinson Park,Ontario,512,-79.460313,43.687993,"['Park', 'Sports and Recreation']",,
4458cd04d9fb8c770ac4bae9d9db2d63,4eb0ca53be7bb9c3eeace0d6,Nairn Park,"Nairn Ave (Chudleigh Rd), Toronto ON",563,-79.456174,43.690767,['Park'],,
8db545a0135f7b92022fbdbbc75af6c4,4ad4c05cf964a520cdf520e3,Insomnia Restaurant and Lounge,"563 Bloor St W (Bathurst St), Toronto ON M5S 1Y6",174,-79.410893,43.665097,"['Restaurant', 'Lounge']",8.7,2.0
8db545a0135f7b92022fbdbbc75af6c4,4c7be89283a7bfb7637d8ff8,Snakes & Lattes,"600 Bloor St W (btwn Markham St. & Palmerston Ave.), Toronto ON M6G 1K4",240,-79.413149,43.664876,"['Café', 'Coffee Shop', 'Restaurant']",8.9,2.0
8db545a0135f7b92022fbdbbc75af6c4,5a9ae543b6eedb376f9a13ed,Rustle & Still Café,"605 Bloor St W, Toronto ON M6G 1K6",244,-79.412911,43.664557,"['Café', 'Coffee Shop', 'Sandwich Spot']",8.9,1.0
8db545a0135f7b92022fbdbbc75af6c4,57817461498e4ac40d24a6d6,Crafty Coyote,"511 Bloor St W (Borden St.), Toronto ON M5S 1Y4",272,-79.408747,43.665421,"['Beer Bar', 'Restaurant']",8.4,
8db545a0135f7b92022fbdbbc75af6c4,4b58a308f964a520db6228e3,Cobs Bread,"370 Bloor St W (btwn Walmer & Dalton Rd), Toronto ON M5S 1X2",452,-79.40582,43.66642,"['Bakery', 'Deli']",8.7,1.0
8db545a0135f7b92022fbdbbc75af6c4,56466b66498e2673f2f4bb3a,Kinka Izakaya Bloor,"559 Bloor St W (Bathurst Street), Toronto ON M5S 1Y6",176,-79.410745,43.665051,['Japanese Restaurant'],8.0,3.0
8db545a0135f7b92022fbdbbc75af6c4,5a404aba61e53b224f62f827,Victory Cafe,"440 Bloor St W, Toronto ON M5S 1X5",261,-79.408485,43.665833,"['Beer Bar', 'Restaurant']",8.0,2.0
8db545a0135f7b92022fbdbbc75af6c4,527d450111d25050de4ea0d8,Rasa,"196 Robert St, Toronto ON M5S 2K7",754,-79.404126,43.662838,['Restaurant'],9.2,
8db545a0135f7b92022fbdbbc75af6c4,4b11b1f2f964a520778223e3,Korean Village Restaurant,"628 Bloor St W, Toronto ON M6G 1K7",324,-79.414501,43.664553,"['BBQ Joint', 'Korean Restaurant']",8.0,2.0
8db545a0135f7b92022fbdbbc75af6c4,5707bcb9498e709b544e20b2,Her Father's Cider Bar + Kitchen,"119 Harbord St (at Major St), Toronto ON M5S 1G7",730,-79.404572,43.662413,"['Beer Bar', 'Restaurant']",8.9,
940aa4a33247df5ea989d1b07e125e5d,4b9333f1f964a520fa3a34e3,Coronation Park,"711 Lake Shore Blvd W (at Strachan Ave.), Toronto ON M5V 3T7",477,-79.405523,43.634109,['Park'],8.7,
940aa4a33247df5ea989d1b07e125e5d,53879eb7498ee9aa7b6fe3d8,Toronto Public Library,"190 Fort York Blvd, Toronto ON M5V 0E7",467,-79.400408,43.639252,['Library'],8.5,
940aa4a33247df5ea989d1b07e125e5d,4c8965cce51e6dcbf1e55fde,Coronation Dog Park,Toronto ON,386,-79.403716,43.633623,['Dog Park'],8.2,
940aa4a33247df5ea989d1b07e125e5d,4bb656c5f562ef3be7003097,Ireland Park,"Queens Quay W, Toronto ON",314,-79.395951,43.634749,['Park'],8.0,
940aa4a33247df5ea989d1b07e125e5d,53a71af5498e070ad51fdbcc,Parisco Cafe,"215 Fort York Blvd, Toronto ON M5V 4A2",401,-79.404694,43.636527,"['Bistro', 'Café', 'French Restaurant']",8.1,1.0
940aa4a33247df5ea989d1b07e125e5d,570027be498e3f54be8ab8eb,Tim Hortons,"2 Bruyeres Mews (at Bathurst St), Toronto ON M5V 0G7",276,-79.40031,43.637463,"['Cafe, Coffee, and Tea House', 'Restaurant']",7.7,1.0
940aa4a33247df5ea989d1b07e125e5d,5cae3bc7a2a6ce003947bf6d,Stackt Market,"28 Bathurst St (at Front St W), Toronto ON M5V 0R4",664,-79.402021,43.641155,"['Restaurant', 'Grocery Store']",8.4,
940aa4a33247df5ea989d1b07e125e5d,4b968fd3f964a520dfd434e3,Victoria Memorial Square,"Wellington St W (at Portland St), Toronto ON",862,-79.400289,43.643189,"['Park', 'Sports and Recreation']",8.8,
940aa4a33247df5ea989d1b07e125e5d,4ae338e1f964a520e39121e3,Le Select Bistro,"432 Wellington St W (at Spadina Ave), Toronto ON M5V 1E3",990,-79.39683,43.643777,"['Wine Bar', 'Bistro', 'French Restaurant']",8.9,2.0
940aa4a33247df5ea989d1b07e125e5d,4b618500f964a52090162ae3,HTO Park,"339 Queens Quay W (at Rees St.), Toronto ON M5V 1A2",994,-79.388654,43.637636,['Park'],8.9,
6e21dd07c568ac71711f1358b58c7f3c,4c8ff3075fdf6dcb0f982c91,Babos Donerpoint,"2216 Eglinton Ave W (at Caledonia Rd), Toronto ON M6E 2L1",594,-79.461873,43.693327,"['Diner', 'Falafel Restaurant', 'Turkish Restaurant']",8.0,1.0
6e21dd07c568ac71711f1358b58c7f3c,4bba01e998c7ef3b058f3202,Bert Robinson Park,Ontario,100,-79.460313,43.687993,"['Park', 'Sports and Recreation']",,
6e21dd07c568ac71711f1358b58c7f3c,4c05742c517d0f472d90f415,KFC,"2296 Eglinton Ave E, Toronto ON M1K 2M2",607,-79.463688,43.692969,['Fast Food Restaurant'],5.8,1.0
6e21dd07c568ac71711f1358b58c7f3c,4eb0ca53be7bb9c3eeace0d6,Nairn Park,"Nairn Ave (Chudleigh Rd), Toronto ON",432,-79.456174,43.690767,['Park'],,
6e21dd07c568ac71711f1358b58c7f3c,4e9491ce9adf645ac37f3fdc,Lavrador Bbq,"2188 Eglinton Ave W, York ON M6E 2L1",585,-79.461374,43.69342,"['BBQ Joint', 'Steakhouse']",,2.0
6e21dd07c568ac71711f1358b58c7f3c,5cf569b535811b002cb2a201,Os Amigos Restaurant,"335 Silverthorn Ave, York ON M6N 3K5",651,-79.463043,43.682571,['Restaurant'],,
6e21dd07c568ac71711f1358b58c7f3c,54aaeadb498e5b5d4486199d,Caloura Bar and Grill,"468 Rogers Rd, Toronto ON M6M 1B1",719,-79.466817,43.682182,"['Lounge', 'Portuguese Restaurant']",,2.0
6e21dd07c568ac71711f1358b58c7f3c,56de2d4d498e3895c960f514,Stefan's,"Eglinton Ave W, Toronto ON",867,-79.454726,43.694861,['Beer Bar'],,
6e21dd07c568ac71711f1358b58c7f3c,4c4099ecd7fad13a553a06da,Marble Hill Parkette,"20 Ennerdale Rd, Ontario",870,-79.450402,43.684844,['Playground'],,
6e21dd07c568ac71711f1358b58c7f3c,5930e4e4724750442f9101e9,Yummy Tummy,"1962 Eglinton Ave W, York ON M6E 2J9",910,-79.454134,43.69496,"['Bar', 'Pizzeria', 'Fast Food Restaurant']",,2.0
a2e02c044b1d003adb0993f8da78ee58,4ba79cd4f964a52060a239e3,Philosopher's Walk,"University of Toronto, Toronto ON",402,-79.395799,43.666924,"['Park', 'Sports and Recreation']",9.0,
a2e02c044b1d003adb0993f8da78ee58,527d450111d25050de4ea0d8,Rasa,"196 Robert St, Toronto ON M5S 2K7",488,-79.404126,43.662838,['Restaurant'],9.2,
a2e02c044b1d003adb0993f8da78ee58,4adf787cf964a520e57a21e3,Koerner Hall,"273 Bloor St W (at Avenue Rd.), Toronto ON M5S 1W2",500,-79.396051,43.667916,"['Concert Hall', 'Music Venue', 'Restaurant']",9.1,
a2e02c044b1d003adb0993f8da78ee58,4b9d206bf964a520e69136e3,Queen's Park,"111 Wellesley St W (at Wellesley Ave.), Toronto ON M7A 1A5",473,-79.392075,43.663742,['Park'],8.7,
a2e02c044b1d003adb0993f8da78ee58,56eb72e3498eefb98d82274b,Piano Piano,"88 Harbord St (Harbord & Spadina), Toronto ON M5S 1G5",398,-79.402904,43.663095,['Italian Restaurant'],8.4,2.0
a2e02c044b1d003adb0993f8da78ee58,4b58a308f964a520db6228e3,Cobs Bread,"370 Bloor St W (btwn Walmer & Dalton Rd), Toronto ON M5S 1X2",699,-79.40582,43.66642,"['Bakery', 'Deli']",8.7,1.0
a2e02c044b1d003adb0993f8da78ee58,4bba7d86cf2fc9b62ba6a102,Summer's Sweet Memories Inc,"101 Yorkville Ave (west of Bellair St.), Toronto ON M5R 1C1",921,-79.392297,43.670771,"['Ice Cream Parlor', 'Restaurant']",8.8,1.0
a2e02c044b1d003adb0993f8da78ee58,4af30f13f964a52030ea21e3,Trattoria Nervosa,"75 Yorkville Ave (at Bellair St.), Toronto ON M5R 1B8",984,-79.390983,43.671035,['Italian Restaurant'],8.9,3.0
a2e02c044b1d003adb0993f8da78ee58,4d13b509e3b5224b14da9143,Café Pamenar,"307 Augusta Ave (Btwn Oxford St & College St), Toronto ON M5T 2M2",873,-79.402671,43.656656,"['Café', 'Sandwich Spot']",8.6,2.0
a2e02c044b1d003adb0993f8da78ee58,57817461498e4ac40d24a6d6,Crafty Coyote,"511 Bloor St W (Borden St.), Toronto ON M5S 1Y4",873,-79.408747,43.665421,"['Beer Bar', 'Restaurant']",8.4,
56275b952451bea6cdc0a9e666ea363f,4edeae9d61af80fe89aa3f54,Banh Mi Boys,"392 Queen St W, Toronto ON M5V 2A6",124,-79.396924,43.648766,"['Korean Restaurant', 'Sandwich Spot', 'Vietnamese Restaurant']",9.0,1.0
56275b952451bea6cdc0a9e666ea363f,59ebd72f95a722043bcbc712,Aloette,"163 Spadina Ave, Toronto ON M5V 2L6",176,-79.396002,43.648552,['Restaurant'],8.6,
56275b952451bea6cdc0a9e666ea363f,4ad93053f964a520f21821e3,BarChef,"472 Queen St W (btwn Augusta & Denison), Toronto ON M5V 2B2",149,-79.400236,43.648133,"['Cocktail Bar', 'Lounge', 'Restaurant']",8.4,3.0
56275b952451bea6cdc0a9e666ea363f,5a2f13e28ad62e3cdea5e26f,Chubby's Jamaican Kitchen,"104 Portland St (Portland and Adelaide), Toronto ON M5V 2N2",382,-79.400698,43.645461,['Caribbean Restaurant'],8.7,2.0
56275b952451bea6cdc0a9e666ea363f,4ad4c05cf964a52007f620e3,Horseshoe Tavern,"370 Queen St W (at Spadina Ave.), Toronto ON M5V 2A2",217,-79.395851,43.649069,"['Music Venue', 'Bar']",8.1,
56275b952451bea6cdc0a9e666ea363f,57125773498ec1010840bf7a,Forget Me Not Cafe,"506 Adelaide St W, Toronto ON M5V 1T5",354,-79.400843,43.645787,"['Coffee Shop', 'Restaurant']",8.5,1.0
56275b952451bea6cdc0a9e666ea363f,4fcc0dd177167574f0de38d5,Bar Hop,"391 King St W (at Charlotte St), Toronto ON M5V 1K1",497,-79.393658,43.645579,"['Beer Bar', 'Restaurant']",8.8,2.0
56275b952451bea6cdc0a9e666ea363f,4ae338e1f964a520e39121e3,Le Select Bistro,"432 Wellington St W (at Spadina Ave), Toronto ON M5V 1E3",544,-79.39683,43.643777,"['Wine Bar', 'Bistro', 'French Restaurant']",8.9,2.0
56275b952451bea6cdc0a9e666ea363f,54256356498edef2967366eb,The Keg,"560 King St W, Toronto ON M5V 0L5",412,-79.399243,43.644837,['Restaurant'],8.4,
56275b952451bea6cdc0a9e666ea363f,539789cb498e6ed2a08eeafb,Kinton Ramen,"402 Queen St W (at Cameron Avenue), Toronto ON M5V 2A6",93,-79.397109,43.648753,['Ramen Restaurant'],7.7,2.0
479d21ebdac47eb8e30a209268e0bebe,4afed11ef964a5209d3022e3,Jamie Bell Adventure Playground,Toronto ON,148,-79.456591,43.64363,"['Playground', 'Sports and Recreation']",8.9,
479d21ebdac47eb8e30a209268e0bebe,4b757192f964a520d30c2ee3,High Park Offleash Dog Trail,"Centre Rd (btw High Park Blvd & Bloor), Toronto ON",199,-79.45887,43.645596,['Dog Park'],9.0,
479d21ebdac47eb8e30a209268e0bebe,4bb8cb65314e95217ac3489d,High Park Offleash Dog Trail,"Colborne Lodge Dr (at Centre Rd), Toronto ON M6R 2Z3",618,-79.463705,43.646589,['Dog Park'],8.6,
479d21ebdac47eb8e30a209268e0bebe,5337166e498e7ec9227d01a4,Ed's Real Scoop,"189 Roncesvalles Ave, Toronto ON M6R 2L5",639,-79.448252,43.644969,"['Ice Cream Parlor', 'Restaurant']",8.5,1.0
479d21ebdac47eb8e30a209268e0bebe,4b5df38ef964a520aa7529e3,Cafe Polonez,"195 Roncesvalles Ave (at Wright Ave.), Toronto ON M6R 2L5",635,-79.448307,43.645021,"['Diner', 'Eastern European Restaurant', 'Polish Restaurant']",8.4,2.0
479d21ebdac47eb8e30a209268e0bebe,4da50b29a86ed93def2fb1d9,Barque Smokehouse,"299 Roncesvalles Ave, Toronto ON M6R 2M3",653,-79.449527,43.647963,['BBQ Joint'],8.3,2.0
479d21ebdac47eb8e30a209268e0bebe,4bc8c23b92b376b0ad21523a,Sunnyside Park,"1755 Lake Shore Blvd W (at Colborne Lodge Dr.), Toronto ON M6S 5A3",991,-79.45644,43.637747,['Park'],9.1,
479d21ebdac47eb8e30a209268e0bebe,4ad8fc3df964a520c31621e3,Inter-Ster Restaurant,"357 Roncesvalles Ave (btw Constance St. & Marmaduke St.), Toronto ON M6R 2M8",733,-79.4502,43.649823,"['Diner', 'Eastern European Restaurant', 'Polish Restaurant']",8.3,2.0
479d21ebdac47eb8e30a209268e0bebe,4aedc9d1f964a520ecce21e3,The Dizzy,"305A Roncesvalles Ave (at Geoffrey St.), Toronto ON M6R 2M6",663,-79.449581,43.648296,"['Diner', 'Gastropub', 'Wings Joint']",8.0,3.0
479d21ebdac47eb8e30a209268e0bebe,57447179498ebc8c7f99bdb3,Lebanon Express,"327 Roncesvalles Ave (Grenadier Road), Toronto ON M6R 2M6",682,-79.449855,43.648838,['Middle Eastern Restaurant'],7.9,2.0
2383fa5f5c21140fe68f8b6dda91a1b1,5a2f13e28ad62e3cdea5e26f,Chubby's Jamaican Kitchen,"104 Portland St (Portland and Adelaide), Toronto ON M5V 2N2",105,-79.400698,43.645461,['Caribbean Restaurant'],8.7,2.0
2383fa5f5c21140fe68f8b6dda91a1b1,57125773498ec1010840bf7a,Forget Me Not Cafe,"506 Adelaide St W, Toronto ON M5V 1T5",94,-79.400843,43.645787,"['Coffee Shop', 'Restaurant']",8.5,1.0
2383fa5f5c21140fe68f8b6dda91a1b1,5b233c5595d986002c9e8788,Drom Taberna,"458 Queen St W, Toronto ON M5V 2A8",235,-79.399514,43.648297,"['Bar', 'Eastern European Restaurant']",8.9,2.0
2383fa5f5c21140fe68f8b6dda91a1b1,54256356498edef2967366eb,The Keg,"560 King St W, Toronto ON M5V 0L5",140,-79.399243,43.644837,['Restaurant'],8.4,
2383fa5f5c21140fe68f8b6dda91a1b1,4dcb3ddefa76d745f0514d24,WVRST,"609 King St W (btwn Bathurst & Portland St), Toronto ON M5V 1M5",220,-79.40054,43.644181,"['Beer Bar', 'Hot Dog Joint', 'German Restaurant']",8.5,2.0
2383fa5f5c21140fe68f8b6dda91a1b1,4ae338e1f964a520e39121e3,Le Select Bistro,"432 Wellington St W (at Spadina Ave), Toronto ON M5V 1E3",349,-79.39683,43.643777,"['Wine Bar', 'Bistro', 'French Restaurant']",8.9,2.0
2383fa5f5c21140fe68f8b6dda91a1b1,4edeae9d61af80fe89aa3f54,Banh Mi Boys,"392 Queen St W, Toronto ON M5V 2A6",366,-79.396924,43.648766,"['Korean Restaurant', 'Sandwich Spot', 'Vietnamese Restaurant']",9.0,1.0
2383fa5f5c21140fe68f8b6dda91a1b1,4b968fd3f964a520dfd434e3,Victoria Memorial Square,"Wellington St W (at Portland St), Toronto ON",358,-79.400289,43.643189,"['Park', 'Sports and Recreation']",8.8,
2383fa5f5c21140fe68f8b6dda91a1b1,4ad93053f964a520f21821e3,BarChef,"472 Queen St W (btwn Augusta & Denison), Toronto ON M5V 2B2",229,-79.400236,43.648133,"['Cocktail Bar', 'Lounge', 'Restaurant']",8.4,3.0
2383fa5f5c21140fe68f8b6dda91a1b1,59ebd72f95a722043bcbc712,Aloette,"163 Spadina Ave, Toronto ON M5V 2L6",380,-79.396002,43.648552,['Restaurant'],8.6,
2037c7d47c8b7babcd2c4a058a66a6c8,5061dbab498ee603149683e5,Voodoo Child,"388 College St, Toronto ON M5T 1S7",19,-79.405588,43.657062,"['Bar', 'Café', 'Restaurant']",8.9,1.0
2037c7d47c8b7babcd2c4a058a66a6c8,4ae513ebf964a52041a021e3,Cloak & Dagger Irish Pub,"394 College St (btw Borden & Croft), Toronto ON M5T 1S7",19,-79.405681,43.657055,"['Lounge', 'Pub', 'Restaurant']",8.3,1.0
2037c7d47c8b7babcd2c4a058a66a6c8,4ad4c05df964a5204cf620e3,Sneaky Dee's,"431 College St (at Bathurst St), Toronto ON M5T 1T1",166,-79.407348,43.656372,"['Lounge', 'Diner', 'Tex-Mex Restaurant']",8.6,1.0
2037c7d47c8b7babcd2c4a058a66a6c8,5d21413d5cbbb20023c57b49,The Little Jerry,"418 College St, Toronto ON M5T 1T3",118,-79.406994,43.656791,"['Wine Bar', 'Restaurant']",8.3,2.0
2037c7d47c8b7babcd2c4a058a66a6c8,4d13b509e3b5224b14da9143,Café Pamenar,"307 Augusta Ave (Btwn Oxford St & College St), Toronto ON M5T 2M2",228,-79.402671,43.656656,"['Café', 'Sandwich Spot']",8.6,2.0
2037c7d47c8b7babcd2c4a058a66a6c8,55fb4f19498e141bd2492d4e,Snakes & Lattes College,"489 College St (at Markham St), Toronto ON M6G 1A5",305,-79.408996,43.655859,"['Arts and Entertainment', 'Café', 'Restaurant']",8.8,1.0
2037c7d47c8b7babcd2c4a058a66a6c8,54e0dc87498ecbdb39a0fade,Bar Raval,"505 College St (Palmerston Blvd), Toronto ON M6G 1A5",387,-79.409883,43.655851,"['Lounge', 'Tapas Restaurant']",8.9,3.0
2037c7d47c8b7babcd2c4a058a66a6c8,5a35aac9e96d0c07801331ec,Ozzy's Burgers,"66 Nassau St (Augusta and Nassau), Toronto ON M5T 1M5",320,-79.402606,43.65537,"['Burger Joint', 'Fast Food Restaurant']",8.5,1.0
2037c7d47c8b7babcd2c4a058a66a6c8,535163cf498ea10a3b9582b5,Blackbird Baking Co,"172 Baldwin St, Toronto ON M5T 1L8",469,-79.400706,43.65489,"['Bakery', 'Restaurant']",8.8,1.0
2037c7d47c8b7babcd2c4a058a66a6c8,51438b33e4b0a40e33fe5e77,Jimmy's Coffee,"191 Baldwin St (Kensington Market), Toronto ON M5T 1M1",450,-79.401208,43.654517,"['Café', 'Coffee Shop', 'Restaurant']",8.7,2.0
cc1432c52b1e87a738180d369ed1136b,51853a73498e4d97a8b20831,Rooster Coffee House,"343 King St E (btwn Princess & Berkeley St), Toronto ON M5A 1L1",168,-79.365327,43.651731,"['Coffee Shop', 'Restaurant']",9.1,2.0
cc1432c52b1e87a738180d369ed1136b,53b8466a498e83df908c3f21,Tandem Coffee,"368 King St E (at Trinity St), Toronto ON M5A 1K9",259,-79.361894,43.653663,"['Café', 'Coffee Shop', 'Restaurant']",9.0,1.0
cc1432c52b1e87a738180d369ed1136b,55be4bd4498e08d9ccc061e4,Neo Coffee Bar,"161 Frederick St (at King St E), Toronto ON M5A 4P3",450,-79.369086,43.650673,"['Café', 'Coffee Shop', 'Restaurant']",9.0,2.0
cc1432c52b1e87a738180d369ed1136b,57cd9d20498e6ab8342980e2,Arvo Coffee,"17 Gristmill Lane (at Parliament St), Toronto ON M5A 3C4",474,-79.361295,43.649889,"['Coffee Shop', 'Restaurant']",9.1,1.0
cc1432c52b1e87a738180d369ed1136b,4af59046f964a520e0f921e3,Figs Breakfast & Lunch,"344 Queen St E (at Parliament St.), Toronto ON M5A 1S8",260,-79.36465,43.655709,['Restaurant'],8.3,1.0
cc1432c52b1e87a738180d369ed1136b,4fff1f96e4b042ae8acddca5,Fahrenheit Coffee,"120 Lombard St (at Jarvis St), Toronto ON M5C 3H5",628,-79.372916,43.652416,"['Café', 'Coffee Shop', 'Restaurant']",9.1,2.0
cc1432c52b1e87a738180d369ed1136b,4ae5f583f964a52084a321e3,The George Street Diner,"129 George St (at Richmond St E), Toronto ON M5A 2M6",519,-79.37147,43.653026,"['Diner', 'American Restaurant']",8.6,2.0
cc1432c52b1e87a738180d369ed1136b,4ad4c062f964a520fbf720e3,St. Lawrence Market Outdoor Vendors,"93 Front St E (at Lower Jarvis St), Toronto ON M5E 1C3",736,-79.371614,43.648637,"['Restaurant', 'Farmers Market', 'Grocery Store']",9.2,1.0
cc1432c52b1e87a738180d369ed1136b,4adb58f7f964a520412621e3,Balzac's Coffee Roastery,"55 Mill St (at Distillery Ln.), Toronto ON M5A 3C4",616,-79.359096,43.64988,"['Café', 'Coffee Shop', 'Restaurant']",8.6,2.0
cc1432c52b1e87a738180d369ed1136b,5612b1cc498e3dd742af0dc8,Impact Kitchen,"573 King St E (at St Lawrence St), Toronto ON M5A 1M5",728,-79.357052,43.656146,"['Restaurant', 'Café']",8.8,2.0
71debce521f35fd4e280e8ee1e2dd8cc,57d0b57b498e640a72cbbe26,Birreria Volo,"612 College St (btwn Grace & Clinton St), Toronto ON M6G 1B4",120,-79.414692,43.65522,"['Beer Bar', 'Tapas Restaurant']",8.6,
71debce521f35fd4e280e8ee1e2dd8cc,54e0dc87498ecbdb39a0fade,Bar Raval,"505 College St (Palmerston Blvd), Toronto ON M6G 1A5",367,-79.409883,43.655851,"['Lounge', 'Tapas Restaurant']",8.9,3.0
71debce521f35fd4e280e8ee1e2dd8cc,4ad4c061f964a52096f720e3,Utopia Cafe & Grill,"586A College St (at Clinton St.), Toronto ON M6G 1B3",136,-79.413508,43.655419,"['Burger Joint', 'American Restaurant', 'Tex-Mex Restaurant']",8.1,2.0
71debce521f35fd4e280e8ee1e2dd8cc,5c01f8aa1f8ed600392602fa,The Dog and Tiger Kitchen and Bar,"537 College St, Toronto ON M6G 1A9",268,-79.411457,43.655456,['Pub'],8.3,1.0
71debce521f35fd4e280e8ee1e2dd8cc,55fb4f19498e141bd2492d4e,Snakes & Lattes College,"489 College St (at Markham St), Toronto ON M6G 1A5",444,-79.408996,43.655859,"['Arts and Entertainment', 'Café', 'Restaurant']",8.8,1.0
71debce521f35fd4e280e8ee1e2dd8cc,514a4961e4b004a36b8d9ea0,Bar Isabel,"797 College St, Toronto ON M6G 1C7",514,-79.420682,43.654672,"['Cocktail Bar', 'American Restaurant', 'Tapas Restaurant']",9.1,3.0
71debce521f35fd4e280e8ee1e2dd8cc,550dfcb6498e446e1eff9031,Northern Belle,"913 Dundas St W (at Bellwoods Ave), Toronto ON M6J 1V9",627,-79.41266119480133,43.65083822543628,"['Cocktail Bar', 'Café', 'Restaurant']",9.4,3.0
71debce521f35fd4e280e8ee1e2dd8cc,4b773d3ef964a520b78a2ee3,Sicilian Sidewalk Cafe,"712 College St (at Montrose Ave.), Toronto ON M6G 1C3",337,-79.41859,43.65533,"['Café', 'Diner', 'Fast Food Restaurant']",8.2,1.0
71debce521f35fd4e280e8ee1e2dd8cc,4ad4c05df964a5204cf620e3,Sneaky Dee's,"431 College St (at Bathurst St), Toronto ON M5T 1T1",583,-79.407348,43.656372,"['Lounge', 'Diner', 'Tex-Mex Restaurant']",8.6,1.0
71debce521f35fd4e280e8ee1e2dd8cc,5061dbab498ee603149683e5,Voodoo Child,"388 College St, Toronto ON M5T 1S7",743,-79.405588,43.657062,"['Bar', 'Café', 'Restaurant']",8.9,1.0
37b4b6822fe05d33d64c2a174a23a4ee,5282572111d2f33612220715,Boxcar Social,"1208 Yonge St (Summerhill), Toronto ON M4T 1W1",328,-79.391609,43.681714,"['Wine Bar', 'Coffee Shop', 'Restaurant']",9.0,2.0
37b4b6822fe05d33d64c2a174a23a4ee,4b15383bf964a52079a923e3,Capocaccia Cafe,"1366 Yonge St (Balmoral Ave.), Toronto ON M4T 3A7",159,-79.393409,43.685963,"['Bistro', 'Pizzeria', 'Italian Restaurant']",8.0,3.0
37b4b6822fe05d33d64c2a174a23a4ee,4ad4c061f964a520a5f720e3,Scaramouche Restaurant Pasta Bar & Grill,"1 Benvenuto Pl (at Edmund Ave.), Toronto ON M4V 2L1",675,-79.399801,43.681456,['French Restaurant'],8.6,4.0
37b4b6822fe05d33d64c2a174a23a4ee,4ad4c05cf964a5200df620e3,The Rosedale Diner,"1164 Yonge St, Toronto ON M4W 2L9",481,-79.391119,43.680402,"['Wine Bar', 'Restaurant']",8.1,2.0
37b4b6822fe05d33d64c2a174a23a4ee,4bc0d290920eb713dda1192c,Rosehill Reservoir,"75 Rosehill Ave, Toronto ON",394,-79.388544,43.68626,['Park'],8.0,
37b4b6822fe05d33d64c2a174a23a4ee,4ad88fa9f964a520511221e3,Black Camel,"4 Crescent Rd (Yonge), Toronto ON M4W 1S9",880,-79.389423,43.6771,"['BBQ Joint', 'Coffee Shop', 'Chinese Restaurant']",9.0,2.0
37b4b6822fe05d33d64c2a174a23a4ee,4bf031dcf831c928eab401f2,David A. Balfour Park,"200 Mount Pleasant Rd, Toronto ON M4T 2C4",369,-79.388253,43.685607,"['Park', 'Sports and Recreation']",7.8,
37b4b6822fe05d33d64c2a174a23a4ee,4af6de52f964a520b20322e3,Ramsden Park,"1 Ramsden Rd (Yonge Street), Toronto ON M6E 2N1",975,-79.390004,43.676047,['Park'],8.5,
37b4b6822fe05d33d64c2a174a23a4ee,4af59dcdf964a5205efa21e3,Toronto Public Library,"40 St Clair Ave E (at Yonge St.), Toronto ON M4T 1M9",454,-79.392502,43.68878,['Library'],7.6,
37b4b6822fe05d33d64c2a174a23a4ee,52acedc011d2bf5586251c3c,Union Social Eatery,"21 Saint Clair Ave W, Toronto ON M4V 1K6",414,-79.39495,43.687704,"['Burger Joint', 'American Restaurant']",7.5,2.0
eb20e0b8c7c8bf1fc4157a3b715e2837,4bd30e129854d13acdbefc4d,Lithuania Park,"155 Oakmount Rd (at Glenlake & Keele), Toronto ON M1P 4N7",518,-79.462786,43.658895,['Park'],8.5,
eb20e0b8c7c8bf1fc4157a3b715e2837,4ad4c05ef964a5209ff620e3,High Park,"1873 Bloor St W (at Parkside Dr), Toronto ON M6R 2Z3",892,-79.464477,43.653999,['Urban Park'],9.4,
eb20e0b8c7c8bf1fc4157a3b715e2837,4e20e9d9e4cdf685918068b5,The Mugshot Tavern,"1729 Bloor St W (at Parkside Dr.), Toronto ON M6P 1B2",469,-79.459577,43.654638,"['Bar', 'Restaurant']",8.0,2.0
eb20e0b8c7c8bf1fc4157a3b715e2837,4bb8cb65314e95217ac3489d,High Park Offleash Dog Trail,"Colborne Lodge Dr (at Centre Rd), Toronto ON M6R 2Z3",863,-79.463705,43.646589,['Dog Park'],8.6,
eb20e0b8c7c8bf1fc4157a3b715e2837,541da101498e3a898ac95032,Outpost Coffee Roasters,"1578 Bloor St W, Toronto ON M6P 1A4",937,-79.454025,43.656167,"['Café', 'Coffee Shop', 'Restaurant']",8.5,1.0
eb20e0b8c7c8bf1fc4157a3b715e2837,4c99374b292a6dcb5f72c476,Osaka Sushi Japanese Restaurant,"1620 Bloor St W (Btwn Dorval & Indian Rd.), Toronto ON M6P 1A7",813,-79.45569,43.655765,['Sushi Restaurant'],8.1,2.0
eb20e0b8c7c8bf1fc4157a3b715e2837,4ae35797f964a520bc9321e3,King Slice,"1598 Bloor St W (Dundas), Toronto ON M6P 1A7",867,-79.454968,43.65593,"['Pizzeria', 'Fast Food Restaurant']",7.9,1.0
eb20e0b8c7c8bf1fc4157a3b715e2837,4c12a36677cea593d36bcd60,Lithuanian Hall,"1535 Bloor St W, Toronto ON",938,-79.453953,43.655724,"['Event Service', 'Organization', 'Sports Bar']",7.2,1.0
eb20e0b8c7c8bf1fc4157a3b715e2837,5556ccb2498ed73c5ee740d9,Aztec's Mine,"1986 Bloor St W (at Parkview Gardens), Toronto ON M6P 3K9",292,-79.468473,43.652976,['Tex-Mex Restaurant'],6.4,1.0
eb20e0b8c7c8bf1fc4157a3b715e2837,4b32edf1f964a520191625e3,Tim Hortons,"1728 Bloor St W (Indian Grove), Toronto ON M6P 1A8",555,-79.458519,43.655333,"['Cafe, Coffee, and Tea House', 'Restaurant']",6.0,1.0
d00c14c6cffc4b0fb30239ec2410232c,51819802498ee3c6834b8e0b,De Mello Palheta Coffee Roasters,"2489 Yonge St (Erksine Ave), Toronto ON M4P 2H6",201,-79.399275,43.711877,"['Café', 'Coffee Shop', 'Restaurant']",8.6,2.0
d00c14c6cffc4b0fb30239ec2410232c,558b50e1498eb7bbde2fa5c5,Cibo Wine Bar,"2472 Yonge St (at Castlefield Ave), Toronto ON M4P 2H5",233,-79.399575,43.711405,['Italian Restaurant'],8.3,2.0
d00c14c6cffc4b0fb30239ec2410232c,4aecffb0f964a520a3cc21e3,La Vecchia Ristorante,"2405A Yonge St (btwn Broadway & Erskine Ave.), Toronto ON M4P 2E7",382,-79.398862,43.710165,['Italian Restaurant'],8.2,4.0
d00c14c6cffc4b0fb30239ec2410232c,4ad4c061f964a520a2f720e3,Grazie Ristorante,"2373 Yonge St, Toronto ON M4P 2C8",478,-79.398738,43.709388,['Italian Restaurant'],8.4,2.0
d00c14c6cffc4b0fb30239ec2410232c,52c9eb15498e8c2d586fffea,Sip Wine Bar,"2 Broadway Ave (at Eglinton Ave.), Toronto ON M4P 1T4",443,-79.398476,43.7098,"['Wine Bar', 'Pizzeria', 'Italian Restaurant']",8.0,2.0
d00c14c6cffc4b0fb30239ec2410232c,5fc4397fdc8b462813985533,Pai Uptown,"2335 Yonge St, Toronto ON M4P 2C8",564,-79.398978,43.708515,['Thai Restaurant'],8.1,2.0
d00c14c6cffc4b0fb30239ec2410232c,5f47eddf704690529cef554e,Stock T.C,"2388 Yonge St, Toronto ON M4P 3J5",476,-79.399145,43.709302,"['Café', 'Restaurant']",8.0,1.0
d00c14c6cffc4b0fb30239ec2410232c,5977834ba2a6ce21c60fe91e,Kinton Ramen,"90 Eglinton Ave E, Toronto ON M4P 2Y3",773,-79.395735,43.707584,['Ramen Restaurant'],8.2,
d00c14c6cffc4b0fb30239ec2410232c,4ad772faf964a520a70a21e3,The Keg Steakhouse + Bar,"2201 Yonge St (at Eglinton Ave), Toronto ON M4S 2B2",887,-79.397893,43.705855,['Restaurant'],8.4,3.0
d00c14c6cffc4b0fb30239ec2410232c,521e0c6c04939a8ad55d93d3,Fresh,"90 Eglinton Ave E (Yonge & Eglinton), Toronto ON M4P 2Y3",778,-79.395772,43.707525,['Vegan and Vegetarian Restaurant'],8.2,2.0
07c0bbd2b5c108bacb3a32250af2a076,4bca55e2511f9521b0a7afc7,Port Union Waterfront Park,"Port Union Rd, South End (Lake Ontario), Scarborough ON",710,-79.13487553596497,43.775153313697565,"['Park', 'Waterfront']",9.3,
07c0bbd2b5c108bacb3a32250af2a076,4ddd2d17887775ea9c51b33c,Port Union Village Common Park,"105 Bridgend St, Toronto ON M9C 2Y2",619,-79.134946,43.776322,['Park'],7.4,
07c0bbd2b5c108bacb3a32250af2a076,4aecaaaef964a5201aca21e3,Pizza Pizza,"5500 Lawrence Ave E (Port Union), Toronto ON M1C 3B2",595,-79.137795,43.779605,"['Pizzeria', 'Fast Food Restaurant']",6.2,1.0
07c0bbd2b5c108bacb3a32250af2a076,513fd3dae4b0e4688c9cf6a8,Azumi Teppanyaki and Sushi,"5516 Lawrence Ave E, Scarborough ON M1C 3B2",673,-79.138512,43.780004,['Sushi Restaurant'],,2.0
07c0bbd2b5c108bacb3a32250af2a076,612822b3eb91bb57b98ee3bf,Patty Stop,"5506 Lawrence Ave E, Scarborough ON M1C 3B2",698,-79.138832,43.779645,['Caribbean Restaurant'],,2.0
07c0bbd2b5c108bacb3a32250af2a076,6058ca2186572e11c74c88f9,Popeye's Louisiana Kitchen,"5500 Lawrence Ave E, Scarborough ON M1C 3B2",707,-79.138887,43.779697,"['Fried Chicken Joint', 'Fast Food Restaurant']",,1.0
07c0bbd2b5c108bacb3a32250af2a076,4d977234942ba0935ff96c8c,Port Union Library,"5450 Lawrence Ave E, Toronto ON M1C 3B2",816,-79.140223,43.779547,['Library'],,
07c0bbd2b5c108bacb3a32250af2a076,54c42982498eb34a1cb49fbe,Rice Garden Resturant,"5532 Lawrence Ave E (Port Union And Lawrence), Scarborough ON M1C 3B2",1324,-79.137516,43.779625,['Chinese Restaurant'],,1.0
026bf7c2104a659ef0392f1c22bc6e17,535163cf498ea10a3b9582b5,Blackbird Baking Co,"172 Baldwin St, Toronto ON M5T 1L8",386,-79.400706,43.65489,"['Bakery', 'Restaurant']",8.8,1.0
026bf7c2104a659ef0392f1c22bc6e17,5a6b737b35f98359eed11974,The Library Specialty Coffee,"281 Dundas St W (St Patrick And Dundas St W), Toronto ON M5T 1G1",531,-79.390843,43.654316,"['Coffee Shop', 'Restaurant']",8.9,1.0
026bf7c2104a659ef0392f1c22bc6e17,4d13b509e3b5224b14da9143,Café Pamenar,"307 Augusta Ave (Btwn Oxford St & College St), Toronto ON M5T 2M2",499,-79.402671,43.656656,"['Café', 'Sandwich Spot']",8.6,2.0
026bf7c2104a659ef0392f1c22bc6e17,5a35aac9e96d0c07801331ec,Ozzy's Burgers,"66 Nassau St (Augusta and Nassau), Toronto ON M5T 1M5",515,-79.402606,43.65537,"['Burger Joint', 'Fast Food Restaurant']",8.5,1.0
026bf7c2104a659ef0392f1c22bc6e17,54238a83498e5efd4a50435b,Prenup Pub,"191 College St (Henry St), Toronto ON M5T 1P9",270,-79.394784,43.658801,"['Bar', 'Gastropub']",7.9,3.0
026bf7c2104a659ef0392f1c22bc6e17,5cb0d23175dcb7002cb5e3ad,Koh Lipe Thai Kitchen,"35 Baldwin St, Toronto ON M5T 1L1",270,-79.393327,43.655819,['Thai Restaurant'],7.8,2.0
026bf7c2104a659ef0392f1c22bc6e17,527d450111d25050de4ea0d8,Rasa,"196 Robert St, Toronto ON M5S 2K7",886,-79.404126,43.662838,['Restaurant'],9.2,
026bf7c2104a659ef0392f1c22bc6e17,4ad9f607f964a520691c21e3,Manpuku まんぷく,"at Dundas St. W., Toronto ON",600,-79.390478,43.653781,['Japanese Restaurant'],8.3,2.0
026bf7c2104a659ef0392f1c22bc6e17,4b7716a9f964a520297c2ee3,Mother's Dumplings,"421 Spadina Ave (btwn College & Cecil St.), Toronto ON M5T 2G6",238,-79.399434,43.657172,"['Dim Sum Restaurant', 'Dumpling Restaurant', 'Fast Food Restaurant']",7.7,1.0
026bf7c2104a659ef0392f1c22bc6e17,4ad4c05cf964a52008f620e3,Wanda's Pie in the Sky,"287 Augusta Ave (Oxford St), Toronto ON M5T 2M2",489,-79.402563,43.656271,"['Bakery', 'Restaurant']",8.1,2.0
179e575503c062aa31a47c6f67d492da,5b2d934e59c423002c0c6db6,Eataly Toronto,"55 Bloor St W (at Bay St), Toronto ON M4W 1A5",78,-79.388793,43.669622,['Restaurant'],8.4,
179e575503c062aa31a47c6f67d492da,4af30f13f964a52030ea21e3,Trattoria Nervosa,"75 Yorkville Ave (at Bellair St.), Toronto ON M5R 1B8",239,-79.390983,43.671035,['Italian Restaurant'],8.9,3.0
179e575503c062aa31a47c6f67d492da,57e074a7498ef24d3980d2f5,Planta,"1221 Bay St, Toronto ON M5R 3P5",108,-79.389399,43.670196,['Vegan and Vegetarian Restaurant'],8.2,2.0
179e575503c062aa31a47c6f67d492da,4bba7d86cf2fc9b62ba6a102,Summer's Sweet Memories Inc,"101 Yorkville Ave (west of Bellair St.), Toronto ON M5R 1C1",297,-79.392297,43.670771,"['Ice Cream Parlor', 'Restaurant']",8.8,1.0
179e575503c062aa31a47c6f67d492da,4b5f2e80f964a52088ab29e3,Toronto Public Library - Toronto Reference Library,"789 Yonge St (btwn Collier & Asquith Ave), Toronto ON M4W 2G8",345,-79.386762,43.671847,['Library'],9.0,
179e575503c062aa31a47c6f67d492da,4ad4c063f964a5203ff820e3,Pusateri's,"57 Yorkville Ave (at Bay St.), Toronto ON M5R 3V6",233,-79.390446,43.671186,"['Café', 'Deli']",8.2,
179e575503c062aa31a47c6f67d492da,506f75b5e4b010c1ae9b2b77,Café Boulud,"60 Yorkville Ave Four Seasons (Bay St), Toronto ON M4W 0A4",264,-79.390054,43.671664,['French Restaurant'],8.2,3.0
179e575503c062aa31a47c6f67d492da,4adf787cf964a520e57a21e3,Koerner Hall,"273 Bloor St W (at Avenue Rd.), Toronto ON M5S 1W2",545,-79.396051,43.667916,"['Concert Hall', 'Music Venue', 'Restaurant']",9.1,
179e575503c062aa31a47c6f67d492da,4ba79cd4f964a52060a239e3,Philosopher's Walk,"University of Toronto, Toronto ON",562,-79.395799,43.666924,"['Park', 'Sports and Recreation']",9.0,
179e575503c062aa31a47c6f67d492da,5b720ce2e17910002c42733f,Alobar Yorkville,"162 Cumberland St, Toronto ON M5R 3N5",359,-79.393615,43.669946,['Restaurant'],8.3,
359ce82fbe9d1e9e9962321e62f6066f,527d450111d25050de4ea0d8,Rasa,"196 Robert St, Toronto ON M5S 2K7",241,-79.404126,43.662838,['Restaurant'],9.2,
359ce82fbe9d1e9e9962321e62f6066f,56eb72e3498eefb98d82274b,Piano Piano,"88 Harbord St (Harbord & Spadina), Toronto ON M5S 1G5",187,-79.402904,43.663095,['Italian Restaurant'],8.4,2.0
359ce82fbe9d1e9e9962321e62f6066f,4b6cbfd2f964a52072512ce3,Akai Sushi,"168 Major St (at Harbord St.), Toronto ON M5S 2L3",299,-79.405032,43.66266,['Sushi Restaurant'],8.5,2.0
359ce82fbe9d1e9e9962321e62f6066f,5061dbab498ee603149683e5,Voodoo Child,"388 College St, Toronto ON M5T 1S7",617,-79.405588,43.657062,"['Bar', 'Café', 'Restaurant']",8.9,1.0
359ce82fbe9d1e9e9962321e62f6066f,4d13b509e3b5224b14da9143,Café Pamenar,"307 Augusta Ave (Btwn Oxford St & College St), Toronto ON M5T 2M2",566,-79.402671,43.656656,"['Café', 'Sandwich Spot']",8.6,2.0
359ce82fbe9d1e9e9962321e62f6066f,4b58a308f964a520db6228e3,Cobs Bread,"370 Bloor St W (btwn Walmer & Dalton Rd), Toronto ON M5S 1X2",630,-79.40582,43.66642,"['Bakery', 'Deli']",8.7,1.0
359ce82fbe9d1e9e9962321e62f6066f,4ba79cd4f964a52060a239e3,Philosopher's Walk,"University of Toronto, Toronto ON",744,-79.395799,43.666924,"['Park', 'Sports and Recreation']",9.0,
359ce82fbe9d1e9e9962321e62f6066f,4ae6010ff964a520f7a321e3,Toronto Public Library,"239 College St (at Huron St.), Toronto ON M5T 1R5",461,-79.398376,43.657867,['Library'],8.2,
359ce82fbe9d1e9e9962321e62f6066f,535163cf498ea10a3b9582b5,Blackbird Baking Co,"172 Baldwin St, Toronto ON M5T 1L8",754,-79.400706,43.65489,"['Bakery', 'Restaurant']",8.8,1.0
359ce82fbe9d1e9e9962321e62f6066f,4adf787cf964a520e57a21e3,Koerner Hall,"273 Bloor St W (at Avenue Rd.), Toronto ON M5S 1W2",826,-79.396051,43.667916,"['Concert Hall', 'Music Venue', 'Restaurant']",9.1,
4a5734eee8c1c49197ffe9b992dd032a,4fcc0dd177167574f0de38d5,Bar Hop,"391 King St W (at Charlotte St), Toronto ON M5V 1K1",179,-79.393658,43.645579,"['Beer Bar', 'Restaurant']",8.8,2.0
4a5734eee8c1c49197ffe9b992dd032a,4ae338e1f964a520e39121e3,Le Select Bistro,"432 Wellington St W (at Spadina Ave), Toronto ON M5V 1E3",305,-79.39683,43.643777,"['Wine Bar', 'Bistro', 'French Restaurant']",8.9,2.0
4a5734eee8c1c49197ffe9b992dd032a,5321f4d9e4b07946702e6e08,Byblos,"11 Duncan St (at Pearl St), Toronto ON M5V 3M2",529,-79.38826382160187,43.647449600777314,['Mediterranean Restaurant'],9.3,2.0
4a5734eee8c1c49197ffe9b992dd032a,4ad4c05ef964a520cbf620e3,Steam Whistle Brewing,"255 Bremner Blvd (btwn Rees St. & Simcoe St.), Toronto ON M5V 3M9",533,-79.385267,43.641025,"['Brewery', 'Restaurant']",9.2,1.0
4a5734eee8c1c49197ffe9b992dd032a,529612de11d2ab526191ccc9,Pai,"18 Duncan St (at Adelaide St W), Toronto ON M5H 3G8",551,-79.388636,43.647796,['Thai Restaurant'],9.3,2.0
4a5734eee8c1c49197ffe9b992dd032a,589fafe634935555b0fa6c35,Khao San Road,"11 Charlotte St (King St. W), Toronto ON M5V 0M6",258,-79.393894,43.64618,['Thai Restaurant'],8.2,2.0
4a5734eee8c1c49197ffe9b992dd032a,59b41d760d8a0f65466d467d,Kost,"80 Blue Jays Way, Toronto ON M5V 2G3",144,-79.392404,43.645334,['Restaurant'],7.9,3.0
4a5734eee8c1c49197ffe9b992dd032a,4edeae9d61af80fe89aa3f54,Banh Mi Boys,"392 Queen St W, Toronto ON M5V 2A6",600,-79.396924,43.648766,"['Korean Restaurant', 'Sandwich Spot', 'Vietnamese Restaurant']",9.0,1.0
4a5734eee8c1c49197ffe9b992dd032a,4b642db1f964a520b7a22ae3,Roundhouse Park,"255 Bremner Blvd (at Lower Simcoe St), Toronto ON M5V 3M9",739,-79.38613,43.641748,['Park'],9.3,
4a5734eee8c1c49197ffe9b992dd032a,57be1ded498edab44ddf8725,A&W Restaurant,"8 Mercer St (John St), Toronto ON M5V 0C4",338,-79.389757,43.646031,"['American Restaurant', 'Fast Food Restaurant']",8.1,1.0
fba4560a5641afdb69a97d04466ef788,4ad4c05cf964a52018f620e3,Dutch Dreams Icecream Parlor Toronto,"36 Vaughan Rd (btwn Ellsworth Ave. & Hocken Ave.), Toronto ON M6G 2N3",124,-79.419025,43.682023,"['Ice Cream Parlor', 'Restaurant']",8.2,2.0
fba4560a5641afdb69a97d04466ef788,4b6f0c25f964a52060d92ce3,CocoaLatte,"671 Saint Clair Ave W (at Christie St.), Toronto ON M6C 1A7",543,-79.425185,43.68163,"['Café', 'Fast Food Restaurant']",8.2,1.0
fba4560a5641afdb69a97d04466ef788,4bbd2aff8a4fb7130ebc3c9d,Sir Winston Churchill Park,"301 St Clair Ave W (at Spadina Rd), Toronto ON M4V 1S4",713,-79.409696,43.683656,['Park'],8.3,
fba4560a5641afdb69a97d04466ef788,59bc5ac94b78c5276f4bd18b,Queen of Persia,"672A St Clair Ave W (Christie & St. Clair W), Toronto ON M6C 1B1",557,-79.425423,43.68195,['Persian Restaurant'],7.9,
fba4560a5641afdb69a97d04466ef788,4b5b534cf964a520b4f428e3,Churrasco of St Clair,"679 Saint Clair Ave W (at Christie St), Toronto ON M6C 1A7",569,-79.425314,43.681565,"['BBQ Joint', 'Pizzeria', 'Fast Food Restaurant']",7.8,2.0
fba4560a5641afdb69a97d04466ef788,4e81e6c1469032a28cc3fc95,Aroma Expresso Bar,"383B Spadina Rd (Lonsdale), Toronto ON M5P 2W1",732,-79.412384,43.688178,"['Café', 'Coffee Shop', 'Restaurant']",7.9,1.0
fba4560a5641afdb69a97d04466ef788,4aeb7abbf964a52080c221e3,Ferro Bar & Cafe,"769 Saint Clair Ave W (at Arlington Ave.), Toronto ON M6C 1B4",827,-79.428573,43.680878,"['Pizzeria', 'Italian Restaurant']",7.8,2.0
fba4560a5641afdb69a97d04466ef788,50eb05bee4b097a7c96c3b36,Pizza Del Arte,"1480 Bathurst St (at St, Clair Ave. W), Toronto ON M5P 3G9",28,-79.418609,43.683513,['Pizzeria'],6.8,1.0
fba4560a5641afdb69a97d04466ef788,4c4baeec6e209521135714ec,Albert's Real Jamaican Food,"542 Saint Clair Ave W (Vaughan), Toronto ON M6C 1A5",159,-79.420702,43.682855,"['Diner', 'Caribbean Restaurant', 'Fast Food Restaurant']",6.9,2.0
fba4560a5641afdb69a97d04466ef788,4ae45ae0f964a5201d9a21e3,Pain Perdu,"736 Saint Clair Ave W (at Christie), Toronto ON M6C 1B3",722,-79.427459,43.681521,"['Bakery', 'American Restaurant', 'French Restaurant']",7.4,1.0
25beb3f096bca69d14c865774e03b0e8,5387ed15498e7b711dcb33a1,Supercoffee,"1148 Weston Rd (at Eglinton Ave W), Toronto ON M6N 3S4",967,-79.489589,43.686746,"['Café', 'Coffee Shop', 'Restaurant']",8.1,1.0
25beb3f096bca69d14c865774e03b0e8,4c6ec8c94d24b60c7cbad9d8,Tim Hortons,"500 Trethewey Dr (Black Creek Drive), North York ON M6M 4C2",37,-79.487899,43.695687,"['Cafe, Coffee, and Tea House', 'Restaurant']",6.3,1.0
25beb3f096bca69d14c865774e03b0e8,4bb515511344b713ebcf9b04,Trethewey Park,,175,-79.486554,43.694607,['Playground'],,
25beb3f096bca69d14c865774e03b0e8,4c38afda2c8020a179408b00,McDonald's,"Southdown Rd, Mississauga ON",671,-79.480124,43.693618,"['Burger Joint', 'Fast Food Restaurant']",5.8,1.0
25beb3f096bca69d14c865774e03b0e8,5e06e05cdd5bac00083ec533,Jamaica Way Inc,"614 Trethewey Dr, Toronto ON M6M 4C3",527,-79.494309,43.697126,['Caribbean Restaurant'],,2.0
25beb3f096bca69d14c865774e03b0e8,4dc94af9b0fb33002afc58b0,KFC,"1300 Weston Rd, Toronto ON M6M 4R3",937,-79.496419,43.689052,['Fast Food Restaurant'],5.9,1.0
25beb3f096bca69d14c865774e03b0e8,508c303de4b0ca23f6175f23,244 Pizza & Wings,"1166 Weston Rd, Toronto ON M6M 4P4",606,-79.490364,43.687194,['Pizzeria'],,1.0
25beb3f096bca69d14c865774e03b0e8,4bba43a01261d13ac56dea98,Gulliver Park,"55 Gulliver Rd (Gulliver rd and Culford), Toronto ON",736,-79.479749,43.698251,"['Park', 'Sports and Recreation']",,
25beb3f096bca69d14c865774e03b0e8,5545136a498e2e2bf2e1dddc,V's Caribbean Restaurant,"1221 Weston Rd, Toronto ON M6M 4P7",883,-79.492448,43.68822,"['Caribbean Restaurant', 'Vegan and Vegetarian Restaurant']",,2.0
25beb3f096bca69d14c865774e03b0e8,50d4ca76e4b0496aaddff220,Weston Pizza & Wings,"1239 Weston Rd, York ON M6M 4P7",891,-79.492891,43.688356,['Pizzeria'],,1.0
1b853c3b515bbb20d04729c8059f08ee,4b21fb45f964a520c74224e3,Caffe Demetre,"2962 Bloor St W, Etobicoke ON M8X 1B7",237,-79.508699,43.648169,"['Café', 'Fast Food Restaurant', 'Greek Restaurant']",8.2,2.0
1b853c3b515bbb20d04729c8059f08ee,4b11a52ef964a5204b8123e3,Momiji Sushi Bar,"2955 Bloor St W (at Royal York Rd.), Etobicoke ON M8X 1B8",252,-79.508867,43.647763,['Sushi Restaurant'],8.1,2.0
1b853c3b515bbb20d04729c8059f08ee,4b846845f964a520ad3331e3,Kingsway Fish and Chips,"3060 Bloor St W (at Royal York Rd.), Etobicoke ON M8X 1C4",630,-79.513211,43.647163,"['Fish and Chips Shop', 'Seafood Restaurant']",8.8,3.0
1b853c3b515bbb20d04729c8059f08ee,4ba55cedf964a52051ff38e3,ViBo Restaurant,"2995 Bloor St W, Toronto ON M8X 1C1",382,-79.509902,43.647519,['Italian Restaurant'],7.9,3.0
1b853c3b515bbb20d04729c8059f08ee,4b114971f964a520c17923e3,Creme de la Creme Cafe,"2991 Bloor St W (btwn Humbervale Blvd & Elsfield Rd), Etobicoke ON M8X 1C1",351,-79.509847,43.647467,"['Café', 'Coffee Shop', 'Diner']",7.9,1.0
1b853c3b515bbb20d04729c8059f08ee,51b3b2b5498e6d774e4c80f2,Azarias,"3058A Bloor St W (Royal York Road), Etobicoke ON M8X 1C4",620,-79.513248,43.647104,"['Peruvian Restaurant', 'Tapas Restaurant']",8.4,3.0
1b853c3b515bbb20d04729c8059f08ee,4e569dfd1495eb38e20ac5c5,The Monk's Kettle,"3073 Bloor St W (at Brentwood Rd. S.), Toronto ON M8X 1C7",677,-79.513693,43.646678,['Gastropub'],8.1,3.0
1b853c3b515bbb20d04729c8059f08ee,4b7ec80ef964a520dffe2fe3,Magic Spot Grill,"2973 Bloor St W, Toronto ON M8X 1B8",293,-79.508904,43.647705,"['BBQ Joint', 'Burger Joint', 'Greek Restaurant']",7.6,1.0
1b853c3b515bbb20d04729c8059f08ee,4b5b4c97f964a520baf228e3,Bake Sale on the Kingsway,"3076A Bloor St W, Toronto ON M8X 1C8",698,-79.514154,43.646925,"['Bakery', 'Cupcake Shop', 'Restaurant']",8.1,1.0
1b853c3b515bbb20d04729c8059f08ee,4ad8ef7df964a520291621e3,Crooked Cue,"3056 Bloor St W (near Royal York), Toronto ON M8X 1C4",608,-79.513118,43.64717,"['Pool Hall', 'Lounge', 'Restaurant']",7.8,
1053161189e46ea1c3122c94b644bc9d,57cd9d20498e6ab8342980e2,Arvo Coffee,"17 Gristmill Lane (at Parliament St), Toronto ON M5A 3C4",179,-79.361295,43.649889,"['Coffee Shop', 'Restaurant']",9.1,1.0
1053161189e46ea1c3122c94b644bc9d,53b8466a498e83df908c3f21,Tandem Coffee,"368 King St E (at Trinity St), Toronto ON M5A 1K9",279,-79.361894,43.653663,"['Café', 'Coffee Shop', 'Restaurant']",9.0,1.0
1053161189e46ea1c3122c94b644bc9d,4adb58f7f964a520412621e3,Balzac's Coffee Roastery,"55 Mill St (at Distillery Ln.), Toronto ON M5A 3C4",190,-79.359096,43.64988,"['Café', 'Coffee Shop', 'Restaurant']",8.6,2.0
1053161189e46ea1c3122c94b644bc9d,53a22c92498ec91fda7ce133,Cluny Bistro,"35 Tank House Lane, Toronto ON M5A 3C4",209,-79.357798,43.650535,"['Bistro', 'French Restaurant', 'Soup Spot']",8.3,4.0
1053161189e46ea1c3122c94b644bc9d,51853a73498e4d97a8b20831,Rooster Coffee House,"343 King St E (btwn Princess & Berkeley St), Toronto ON M5A 1L1",437,-79.365327,43.651731,"['Coffee Shop', 'Restaurant']",9.1,2.0
